[
  {
    "name": "Anaa Airport",
    "city": "Anaa",
    "country": "French Polynesia",
    "iata": "AAA",
    "kdtw": "NTGA",
    "lat": "-17.35260009765625",
    "lng": "-145.50999450683594"
  },
  {
    "name": "El Arish International Airport",
    "city": "El Arish",
    "country": "Egypt",
    "iata": "AAC",
    "kdtw": "HEAR",
    "lat": "31.073299408",
    "lng": "33.8358001709"
  },
  {
    "name": "Rabah Bitat Airport",
    "city": "Annaba",
    "country": "Algeria",
    "iata": "AAE",
    "kdtw": "DABB",
    "lat": "36.822201",
    "lng": "7.809174"
  },
  {
    "name": "Apalachicola Regional Airport",
    "city": "Apalachicola",
    "country": "United States",
    "iata": "AAF",
    "kdtw": "KAAF",
    "lat": "29.72750092",
    "lng": "-85.02749634"
  },
  {
    "name": "Aachen-Merzbrück Airport",
    "city": "Aachen",
    "country": "Germany",
    "iata": "AAH",
    "kdtw": "EDKA",
    "lat": "50.823055267333984",
    "lng": "6.186388969421387"
  },
  {
    "name": "Buariki Airport",
    "city": "Buariki",
    "country": "Kiribati",
    "iata": "AAK",
    "kdtw": "NGUK",
    "lat": "0.1852779984474182",
    "lng": "173.63699340820312"
  },
  {
    "name": "Aalborg Airport",
    "city": "Aalborg",
    "country": "Denmark",
    "iata": "AAL",
    "kdtw": "EKYT",
    "lat": "57.0927589138",
    "lng": "9.84924316406"
  },
  {
    "name": "Malamala Airport",
    "city": "Malamala",
    "country": "South Africa",
    "iata": "AAM",
    "kdtw": "FAMD",
    "lat": "-24.818099975585938",
    "lng": "31.544599533081055"
  },
  {
    "name": "Al Ain International Airport",
    "city": "Al Ain",
    "country": "United Arab Emirates",
    "iata": "AAN",
    "kdtw": "OMAL",
    "lat": "24.261699676513672",
    "lng": "55.60919952392578"
  },
  {
    "name": "Anaco Airport",
    "city": "Anaco",
    "country": "Venezuela",
    "iata": "AAO",
    "kdtw": "SVAN",
    "lat": "9.430225372314453",
    "lng": "-64.4707260131836"
  },
  {
    "name": "Andrau Airpark",
    "city": "Houston",
    "country": "United States",
    "iata": "AAP",
    "kdtw": "KAAP",
    "lat": "29.722499847399998",
    "lng": "-95.58830261230001"
  },
  {
    "name": "Anapa Vityazevo Airport",
    "city": "Anapa",
    "country": "Russia",
    "iata": "AAQ",
    "kdtw": "URKA",
    "lat": "45.002101898193",
    "lng": "37.347301483154"
  },
  {
    "name": "Aarhus Airport",
    "city": "Aarhus",
    "country": "Denmark",
    "iata": "AAR",
    "kdtw": "EKAH",
    "lat": "56.2999992371",
    "lng": "10.619000434899998"
  },
  {
    "name": "Altay Air Base",
    "city": "Altay",
    "country": "China",
    "iata": "AAT",
    "kdtw": "ZWAT",
    "lat": "47.7498855591",
    "lng": "88.08580780030002"
  },
  {
    "name": "Allah Valley Airport",
    "city": "Surallah",
    "country": "Philippines",
    "iata": "AAV",
    "kdtw": "RPMA",
    "lat": "6.366819858551025",
    "lng": "124.7509994506836"
  },
  {
    "name": "Romeu Zema Airport",
    "city": "Araxa",
    "country": "Brazil",
    "iata": "AAX",
    "kdtw": "SBAX",
    "lat": "-19.563199996948",
    "lng": "-46.960399627686"
  },
  {
    "name": "Al Ghaidah International Airport",
    "city": "Al Ghaidah Intl",
    "country": "Yemen",
    "iata": "AAY",
    "kdtw": "OYGD",
    "lat": "16.191699981689453",
    "lng": "52.17499923706055"
  },
  {
    "name": "Quezaltenango Airport",
    "city": "Quezaltenango",
    "country": "Guatemala",
    "iata": "AAZ",
    "kdtw": "MGQZ",
    "lat": "14.8656",
    "lng": "-91.501999"
  },
  {
    "name": "Abakan Airport",
    "city": "Abakan",
    "country": "Russia",
    "iata": "ABA",
    "kdtw": "UNAA",
    "lat": "53.7400016784668",
    "lng": "91.38500213623047"
  },
  {
    "name": "Asaba International Airport",
    "city": "Asaba",
    "country": "Nigeria",
    "iata": "ABB",
    "kdtw": "DNAS",
    "lat": "6.204167",
    "lng": "6.665278"
  },
  {
    "name": "Albacete-Los Llanos Airport",
    "city": "Albacete",
    "country": "Spain",
    "iata": "ABC",
    "kdtw": "LEAB",
    "lat": "38.9485015869",
    "lng": "-1.8635200262099998"
  },
  {
    "name": "Abadan Airport",
    "city": "Abadan",
    "country": "Iran",
    "iata": "ABD",
    "kdtw": "OIAA",
    "lat": "30.371099472",
    "lng": "48.2282981873"
  },
  {
    "name": "Lehigh Valley International Airport",
    "city": "Allentown",
    "country": "United States",
    "iata": "ABE",
    "kdtw": "KABE",
    "lat": "40.652099609375",
    "lng": "-75.44080352783203"
  },
  {
    "name": "Abaiang Airport",
    "city": "Abaiang Atoll",
    "country": "Kiribati",
    "iata": "ABF",
    "kdtw": "NGAB",
    "lat": "1.798609972000122",
    "lng": "173.04100036621094"
  },
  {
    "name": "Alpha Airport",
    "city": "Alpha",
    "country": "Australia",
    "iata": "ABH",
    "kdtw": "YAPH",
    "lat": "-23.646099",
    "lng": "146.584"
  },
  {
    "name": "Abilene Regional Airport",
    "city": "Abilene",
    "country": "United States",
    "iata": "ABI",
    "kdtw": "KABI",
    "lat": "32.4113006592",
    "lng": "-99.68190002440001"
  },
  {
    "name": "Port Bouet Airport",
    "city": "Abidjan",
    "country": "Cote d'Ivoire",
    "iata": "ABJ",
    "kdtw": "DIAP",
    "lat": "5.261390209197998",
    "lng": "-3.9262900352478027"
  },
  {
    "name": "Kabri Dehar Airport",
    "city": "Kabri Dehar",
    "country": "Ethiopia",
    "iata": "ABK",
    "kdtw": "HAKD",
    "lat": "6.734",
    "lng": "44.252998"
  },
  {
    "name": "Ambler Airport",
    "city": "Ambler",
    "country": "United States",
    "iata": "ABL",
    "kdtw": "PAFM",
    "lat": "67.1063",
    "lng": "-157.856989"
  },
  {
    "name": "Northern Peninsula Airport",
    "city": "Amberley",
    "country": "Australia",
    "iata": "ABM",
    "kdtw": "YBAM",
    "lat": "-10.9508",
    "lng": "142.459"
  },
  {
    "name": "Albina Airport",
    "city": "Albina",
    "country": "Suriname",
    "iata": "ABN",
    "kdtw": "SMBN",
    "lat": "5.512720108032227",
    "lng": "-54.05009841918945"
  },
  {
    "name": "Albuquerque International Sunport",
    "city": "Albuquerque",
    "country": "United States",
    "iata": "ABQ",
    "kdtw": "KABQ",
    "lat": "35.040199",
    "lng": "-106.609001"
  },
  {
    "name": "Aberdeen Regional Airport",
    "city": "Aberdeen",
    "country": "United States",
    "iata": "ABR",
    "kdtw": "KABR",
    "lat": "45.449100494384766",
    "lng": "-98.42179870605469"
  },
  {
    "name": "Abu Simbel Airport",
    "city": "Abu Simbel",
    "country": "Egypt",
    "iata": "ABS",
    "kdtw": "HEBL",
    "lat": "22.375999450699997",
    "lng": "31.611700058"
  },
  {
    "name": "Al Baha Airport",
    "city": "El-baha",
    "country": "Saudi Arabia",
    "iata": "ABT",
    "kdtw": "OEBA",
    "lat": "20.2961006165",
    "lng": "41.6343002319"
  },
  {
    "name": "Nnamdi Azikiwe International Airport",
    "city": "Abuja",
    "country": "Nigeria",
    "iata": "ABV",
    "kdtw": "DNAA",
    "lat": "9.006790161132812",
    "lng": "7.263169765472412"
  },
  {
    "name": "Albury Airport",
    "city": "Albury",
    "country": "Australia",
    "iata": "ABX",
    "kdtw": "YMAY",
    "lat": "-36.06779861450195",
    "lng": "146.95799255371094"
  },
  {
    "name": "Southwest Georgia Regional Airport",
    "city": "Albany",
    "country": "United States",
    "iata": "ABY",
    "kdtw": "KABY",
    "lat": "31.535499572753906",
    "lng": "-84.19450378417969"
  },
  {
    "name": "Aberdeen Dyce Airport",
    "city": "Aberdeen",
    "country": "United Kingdom",
    "iata": "ABZ",
    "kdtw": "EGPD",
    "lat": "57.201900482177734",
    "lng": "-2.197779893875122"
  },
  {
    "name": "General Juan N Alvarez International Airport",
    "city": "Acapulco",
    "country": "Mexico",
    "iata": "ACA",
    "kdtw": "MMAA",
    "lat": "16.757099151611328",
    "lng": "-99.75399780273438"
  },
  {
    "name": "Kotoka International Airport",
    "city": "Accra",
    "country": "Ghana",
    "iata": "ACC",
    "kdtw": "DGAA",
    "lat": "5.605189800262451",
    "lng": "-0.16678600013256073"
  },
  {
    "name": "Alcides Fernández Airport",
    "city": "Acandi",
    "country": "Colombia",
    "iata": "ACD",
    "kdtw": "SKAD",
    "lat": "8.51667",
    "lng": "-77.3"
  },
  {
    "name": "Lanzarote Airport",
    "city": "Arrecife",
    "country": "Spain",
    "iata": "ACE",
    "kdtw": "GCRR",
    "lat": "28.945499",
    "lng": "-13.6052"
  },
  {
    "name": "Brisbane Archerfield Airport",
    "city": "Brisbane",
    "country": "Australia",
    "iata": "ACF",
    "kdtw": "YBAF",
    "lat": "-27.5702991486",
    "lng": "153.007995605"
  },
  {
    "name": "St Gallen Altenrhein Airport",
    "city": "Altenrhein",
    "country": "Switzerland",
    "iata": "ACH",
    "kdtw": "LSZR",
    "lat": "47.4850006104",
    "lng": "9.560770034789998"
  },
  {
    "name": "Alderney Airport",
    "city": "Alderney",
    "country": "Guernsey",
    "iata": "ACI",
    "kdtw": "EGJA",
    "lat": "49.706104",
    "lng": "-2.21472"
  },
  {
    "name": "Anuradhapura Air Force Base",
    "city": "Anuradhapura",
    "country": "Sri Lanka",
    "iata": "ACJ",
    "kdtw": "VCCA",
    "lat": "8.30148983002",
    "lng": "80.42790222170001"
  },
  {
    "name": "Nantucket Memorial Airport",
    "city": "Nantucket",
    "country": "United States",
    "iata": "ACK",
    "kdtw": "KACK",
    "lat": "41.25310135",
    "lng": "-70.06020355"
  },
  {
    "name": "Ciudad Acuña New International Airport",
    "city": "Ciudad Acuna",
    "country": "Mexico",
    "iata": "ACN",
    "kdtw": "MMCC",
    "lat": "29.332899",
    "lng": "-101.098998"
  },
  {
    "name": "Sahand Airport",
    "city": "Maragheh",
    "country": "Iran",
    "iata": "ACP",
    "kdtw": "OITM",
    "lat": "37.347999572753906",
    "lng": "46.127899169921875"
  },
  {
    "name": "Araracuara Airport",
    "city": "Araracuara",
    "country": "Colombia",
    "iata": "ACR",
    "kdtw": "SKAC",
    "lat": "-0.5833",
    "lng": "-72.4083"
  },
  {
    "name": "Achinsk Airport",
    "city": "Achinsk",
    "country": "Russia",
    "iata": "ACS",
    "kdtw": "UNKS",
    "lat": "56.2682991027832",
    "lng": "90.57080078125"
  },
  {
    "name": "Waco Regional Airport",
    "city": "Waco",
    "country": "United States",
    "iata": "ACT",
    "kdtw": "KACT",
    "lat": "31.611299514770508",
    "lng": "-97.23049926757812"
  },
  {
    "name": "California Redwood Coast-Humboldt County Airport",
    "city": "Arcata CA",
    "country": "United States",
    "iata": "ACV",
    "kdtw": "KACV",
    "lat": "40.978101",
    "lng": "-124.109"
  },
  {
    "name": "Xingyi Airport",
    "city": "Xingyi",
    "country": "China",
    "iata": "ACX",
    "kdtw": "ZUYI",
    "lat": "25.0863888889",
    "lng": "104.959444444"
  },
  {
    "name": "Atlantic City International Airport",
    "city": "Atlantic City",
    "country": "United States",
    "iata": "ACY",
    "kdtw": "KACY",
    "lat": "39.45759963989258",
    "lng": "-74.57720184326172"
  },
  {
    "name": "Zabol Airport",
    "city": "Zabol",
    "country": "Iran",
    "iata": "ACZ",
    "kdtw": "OIZB",
    "lat": "31.09830093383789",
    "lng": "61.54389953613281"
  },
  {
    "name": "Adana Airport",
    "city": "Adana",
    "country": "Turkey",
    "iata": "ADA",
    "kdtw": "LTAF",
    "lat": "36.9822006226",
    "lng": "35.280399322499996"
  },
  {
    "name": "Adnan Menderes International Airport",
    "city": "Izmir",
    "country": "Turkey",
    "iata": "ADB",
    "kdtw": "LTBJ",
    "lat": "38.2924003601",
    "lng": "27.156999588"
  },
  {
    "name": "Addis Ababa Bole International Airport",
    "city": "Addis Ababa",
    "country": "Ethiopia",
    "iata": "ADD",
    "kdtw": "HAAB",
    "lat": "8.97789001465",
    "lng": "38.799301147499996"
  },
  {
    "name": "Aden International Airport",
    "city": "Aden",
    "country": "Yemen",
    "iata": "ADE",
    "kdtw": "OYAA",
    "lat": "12.829500198364258",
    "lng": "45.02880096435547"
  },
  {
    "name": "Adıyaman Airport",
    "city": "Adiyaman",
    "country": "Turkey",
    "iata": "ADF",
    "kdtw": "LTCP",
    "lat": "37.7313995361",
    "lng": "38.4688987732"
  },
  {
    "name": "Aldan Airport",
    "city": "Aldan",
    "country": "Russia",
    "iata": "ADH",
    "kdtw": "UEEA",
    "lat": "58.60279846191406",
    "lng": "125.40899658203125"
  },
  {
    "name": "Arandis Airport",
    "city": "Arandis",
    "country": "Namibia",
    "iata": "ADI",
    "kdtw": "FYAR",
    "lat": "-22.462200164794922",
    "lng": "14.979999542236328"
  },
  {
    "name": "Amman-Marka International Airport",
    "city": "Amman",
    "country": "Jordan",
    "iata": "ADJ",
    "kdtw": "OJAM",
    "lat": "31.972700119018555",
    "lng": "35.991600036621094"
  },
  {
    "name": "Adak Airport",
    "city": "Adak Island",
    "country": "United States",
    "iata": "ADK",
    "kdtw": "PADK",
    "lat": "51.87799835205078",
    "lng": "-176.64599609375"
  },
  {
    "name": "Adelaide International Airport",
    "city": "Adelaide",
    "country": "Australia",
    "iata": "ADL",
    "kdtw": "YPAD",
    "lat": "-34.945",
    "lng": "138.531006"
  },
  {
    "name": "Ardmore Municipal Airport",
    "city": "Ardmore",
    "country": "United States",
    "iata": "ADM",
    "kdtw": "KADM",
    "lat": "34.30301",
    "lng": "-97.0196342"
  },
  {
    "name": "Ampara Airport",
    "city": "Galoya",
    "country": "Sri Lanka",
    "iata": "ADP",
    "kdtw": "VCCG",
    "lat": "7.33776",
    "lng": "81.62594"
  },
  {
    "name": "Kodiak Airport",
    "city": "Kodiak",
    "country": "United States",
    "iata": "ADQ",
    "kdtw": "PADQ",
    "lat": "57.75",
    "lng": "-152.4940033"
  },
  {
    "name": "Addison Airport",
    "city": "Addison",
    "country": "United States",
    "iata": "ADS",
    "kdtw": "KADS",
    "lat": "32.9686012268",
    "lng": "-96.8364028931"
  },
  {
    "name": "Ada Regional Airport",
    "city": "Ada",
    "country": "United States",
    "iata": "ADT",
    "kdtw": "KADH",
    "lat": "34.804298",
    "lng": "-96.671303"
  },
  {
    "name": "Ardabil Airport",
    "city": "Ardabil",
    "country": "Iran",
    "iata": "ADU",
    "kdtw": "OITL",
    "lat": "38.3256988525",
    "lng": "48.4244003296"
  },
  {
    "name": "Joint Base Andrews",
    "city": "Camp Springs",
    "country": "United States",
    "iata": "ADW",
    "kdtw": "KADW",
    "lat": "38.810799",
    "lng": "-76.866997"
  },
  {
    "name": "RAF Leuchars",
    "city": "Leuchars",
    "country": "United Kingdom",
    "iata": "ADX",
    "kdtw": "EGQL",
    "lat": "56.37289810180664",
    "lng": "-2.8684399127960205"
  },
  {
    "name": "Alldays Airport",
    "city": "Alldays",
    "country": "South Africa",
    "iata": "ADY",
    "kdtw": "FAAL",
    "lat": "-22.6790008545",
    "lng": "29.0555000305"
  },
  {
    "name": "Gustavo Rojas Pinilla International Airport",
    "city": "San Andres Island",
    "country": "Colombia",
    "iata": "ADZ",
    "kdtw": "SKSP",
    "lat": "12.5836",
    "lng": "-81.7112"
  },
  {
    "name": "Abemama Atoll Airport",
    "city": "Abemama",
    "country": "Kiribati",
    "iata": "AEA",
    "kdtw": "NGTB",
    "lat": "0.49083301424980164",
    "lng": "173.82899475097656"
  },
  {
    "name": "Baise Youjiang Airport",
    "city": "Baise",
    "country": "China",
    "iata": "AEB",
    "kdtw": "ZGBS",
    "lat": "23.7206001282",
    "lng": "106.959999084"
  },
  {
    "name": "Aek Godang Airport",
    "city": "Padang Sidempuan",
    "country": "Indonesia",
    "iata": "AEG",
    "kdtw": "WIME",
    "lat": "1.4001",
    "lng": "99.430496"
  },
  {
    "name": "Abeche Airport",
    "city": "Abeche",
    "country": "Chad",
    "iata": "AEH",
    "kdtw": "FTTC",
    "lat": "13.847000122070312",
    "lng": "20.84429931640625"
  },
  {
    "name": "Algeciras Heliport",
    "city": "Algeciras",
    "country": "Spain",
    "iata": "AEI",
    "kdtw": "LEAG",
    "lat": "36.12888",
    "lng": "-5.441118"
  },
  {
    "name": "Aioun el Atrouss Airport",
    "city": "Aioun El Atrouss",
    "country": "Mauritania",
    "iata": "AEO",
    "kdtw": "GQNA",
    "lat": "16.711299896240234",
    "lng": "-9.637880325317383"
  },
  {
    "name": "Jorge Newbery Airpark",
    "city": "Buenos Aires",
    "country": "Argentina",
    "iata": "AEP",
    "kdtw": "SABE",
    "lat": "-34.5592",
    "lng": "-58.4156"
  },
  {
    "name": "Sochi International Airport",
    "city": "Sochi",
    "country": "Russia",
    "iata": "AER",
    "kdtw": "URSS",
    "lat": "43.449902",
    "lng": "39.9566"
  },
  {
    "name": "Ålesund Airport",
    "city": "Alesund",
    "country": "Norway",
    "iata": "AES",
    "kdtw": "ENAL",
    "lat": "62.5625",
    "lng": "6.119699954986572"
  },
  {
    "name": "Allakaket Airport",
    "city": "Allakaket",
    "country": "United States",
    "iata": "AET",
    "kdtw": "PFAL",
    "lat": "66.5518035889",
    "lng": "-152.621994019"
  },
  {
    "name": "Abu Musa Island Airport",
    "city": "Abumusa I.",
    "country": "Iran",
    "iata": "AEU",
    "kdtw": "OIBA",
    "lat": "25.8757",
    "lng": "55.033001"
  },
  {
    "name": "Alexandria International Airport",
    "city": "Alexandria",
    "country": "United States",
    "iata": "AEX",
    "kdtw": "KAEX",
    "lat": "31.32740020751953",
    "lng": "-92.54979705810547"
  },
  {
    "name": "Akureyri Airport",
    "city": "Akureyri",
    "country": "Iceland",
    "iata": "AEY",
    "kdtw": "BIAR",
    "lat": "65.66000366210938",
    "lng": "-18.07270050048828"
  },
  {
    "name": "Suboficial Ay Santiago Germano Airport",
    "city": "San Rafael",
    "country": "Argentina",
    "iata": "AFA",
    "kdtw": "SAMR",
    "lat": "-34.588299",
    "lng": "-68.4039"
  },
  {
    "name": "Piloto Osvaldo Marques Dias Airport",
    "city": "Alta Floresta",
    "country": "Brazil",
    "iata": "AFL",
    "kdtw": "SBAT",
    "lat": "-9.8663892746",
    "lng": "-56.1049995422"
  },
  {
    "name": "Sugraly Airport",
    "city": "Zarafshan",
    "country": "Uzbekistan",
    "iata": "AFS",
    "kdtw": "UTSN",
    "lat": "41.61389923095703",
    "lng": "64.23320007324219"
  },
  {
    "name": "Afutara Aerodrome",
    "city": "Afutara",
    "country": "Solomon Islands",
    "iata": "AFT",
    "kdtw": "AGAF",
    "lat": "-9.19138888889",
    "lng": "160.948611111"
  },
  {
    "name": "Fort Worth Alliance Airport",
    "city": "Fort Worth",
    "country": "United States",
    "iata": "AFW",
    "kdtw": "KAFW",
    "lat": "32.9875984192",
    "lng": "-97.31880187990001"
  },
  {
    "name": "Afyon Airport",
    "city": "Afyon",
    "country": "Turkey",
    "iata": "AFY",
    "kdtw": "LTAH",
    "lat": "38.726398468",
    "lng": "30.6011009216"
  },
  {
    "name": "Sabzevar National Airport",
    "city": "Sabzevar",
    "country": "Iran",
    "iata": "AFZ",
    "kdtw": "OIMS",
    "lat": "36.16809844970703",
    "lng": "57.59519958496094"
  },
  {
    "name": "Al Massira Airport",
    "city": "Agadir",
    "country": "Morocco",
    "iata": "AGA",
    "kdtw": "GMAD",
    "lat": "30.325000762939453",
    "lng": "-9.413069725036621"
  },
  {
    "name": "Augsburg Airport",
    "city": "Augsburg",
    "country": "Germany",
    "iata": "AGB",
    "kdtw": "EDMA",
    "lat": "48.425278",
    "lng": "10.931667"
  },
  {
    "name": "Allegheny County Airport",
    "city": "Pittsburgh",
    "country": "United States",
    "iata": "AGC",
    "kdtw": "KAGC",
    "lat": "40.354400634765625",
    "lng": "-79.9301986694336"
  },
  {
    "name": "Wangerooge Airport",
    "city": "Wangerooge",
    "country": "Germany",
    "iata": "AGE",
    "kdtw": "EDWG",
    "lat": "53.782779693603516",
    "lng": "7.913888931274414"
  },
  {
    "name": "Agen-La Garenne Airport",
    "city": "Agen",
    "country": "France",
    "iata": "AGF",
    "kdtw": "LFBA",
    "lat": "44.17470169067383",
    "lng": "0.5905560255050659"
  },
  {
    "name": "Ängelholm-Helsingborg Airport",
    "city": "Ängelholm",
    "country": "Sweden",
    "iata": "AGH",
    "kdtw": "ESTA",
    "lat": "56.29610061645508",
    "lng": "12.847100257873535"
  },
  {
    "name": "Wageningen Airstrip",
    "city": "Wageningen",
    "country": "Suriname",
    "iata": "AGI",
    "kdtw": "SMWA",
    "lat": "5.841128",
    "lng": "-56.673328"
  },
  {
    "name": "Aguni Airport",
    "city": "Aguni",
    "country": "Japan",
    "iata": "AGJ",
    "kdtw": "RORA",
    "lat": "26.5925006866",
    "lng": "127.240997314"
  },
  {
    "name": "Angoon Seaplane Base",
    "city": "Angoon",
    "country": "United States",
    "iata": "AGN",
    "kdtw": "PAGN",
    "lat": "57.503601",
    "lng": "-134.585007"
  },
  {
    "name": "Málaga Airport",
    "city": "Malaga",
    "country": "Spain",
    "iata": "AGP",
    "kdtw": "LEMG",
    "lat": "36.67490005493164",
    "lng": "-4.499110221862793"
  },
  {
    "name": "Agrinion Air Base",
    "city": "Agrinion",
    "country": "Greece",
    "iata": "AGQ",
    "kdtw": "LGAG",
    "lat": "38.602001",
    "lng": "21.3512001"
  },
  {
    "name": "Agra Airport",
    "city": "Agra",
    "country": "India",
    "iata": "AGR",
    "kdtw": "VIAG",
    "lat": "27.155799865722656",
    "lng": "77.96089935302734"
  },
  {
    "name": "Augusta Regional At Bush Field",
    "city": "Bush Field",
    "country": "United States",
    "iata": "AGS",
    "kdtw": "KAGS",
    "lat": "33.36989974975586",
    "lng": "-81.9645004272461"
  },
  {
    "name": "Guarani International Airport",
    "city": "Ciudad del Este",
    "country": "Paraguay",
    "iata": "AGT",
    "kdtw": "SGES",
    "lat": "-25.454516",
    "lng": "-54.842682"
  },
  {
    "name": "Jesús Terán Paredo International Airport",
    "city": "Aguascalientes",
    "country": "Mexico",
    "iata": "AGU",
    "kdtw": "MMAS",
    "lat": "21.705601",
    "lng": "-102.318001"
  },
  {
    "name": "Oswaldo Guevara Mujica Airport",
    "city": "Acarigua",
    "country": "Venezuela",
    "iata": "AGV",
    "kdtw": "SVAC",
    "lat": "9.553375244140625",
    "lng": "-69.23786926269531"
  },
  {
    "name": "Agatti Airport",
    "city": "Agatti Island",
    "country": "India",
    "iata": "AGX",
    "kdtw": "VOAT",
    "lat": "10.823699951171875",
    "lng": "72.1760025024414"
  },
  {
    "name": "Aggeneys Airport",
    "city": "Aggeneys",
    "country": "South Africa",
    "iata": "AGZ",
    "kdtw": "FAAG",
    "lat": "-29.28179931640625",
    "lng": "18.813899993896484"
  },
  {
    "name": "Abha Regional Airport",
    "city": "Abha",
    "country": "Saudi Arabia",
    "iata": "AHB",
    "kdtw": "OEAB",
    "lat": "18.240400314299997",
    "lng": "42.65660095210001"
  },
  {
    "name": "Ahe Airport",
    "city": "Ahe",
    "country": "French Polynesia",
    "iata": "AHE",
    "kdtw": "NTHE",
    "lat": "-14.428099632263184",
    "lng": "-146.2570037841797"
  },
  {
    "name": "Hongyuan Airport",
    "city": "Ngawa",
    "country": "China",
    "iata": "AHJ",
    "kdtw": "ZUHY",
    "lat": "32.53154",
    "lng": "102.35224"
  },
  {
    "name": "Athens Ben Epps Airport",
    "city": "Athens",
    "country": "United States",
    "iata": "AHN",
    "kdtw": "KAHN",
    "lat": "33.94860076904297",
    "lng": "-83.32630157470703"
  },
  {
    "name": "Alghero-Fertilia Airport",
    "city": "Alghero",
    "country": "Italy",
    "iata": "AHO",
    "kdtw": "LIEA",
    "lat": "40.632099",
    "lng": "8.29077"
  },
  {
    "name": "Ahuas Airport",
    "city": "Ahuas",
    "country": "Honduras",
    "iata": "AHS",
    "kdtw": "MHAH",
    "lat": "15.4722",
    "lng": "-84.352203"
  },
  {
    "name": "Cherif Al Idrissi Airport",
    "city": "Al Hociema",
    "country": "Morocco",
    "iata": "AHU",
    "kdtw": "GMTA",
    "lat": "35.177101135253906",
    "lng": "-3.83951997756958"
  },
  {
    "name": "Alliance Municipal Airport",
    "city": "Alliance",
    "country": "United States",
    "iata": "AIA",
    "kdtw": "KAIA",
    "lat": "42.0531997681",
    "lng": "-102.804000854"
  },
  {
    "name": "Anderson Municipal Darlington Field",
    "city": "ANDERSON",
    "country": "United States",
    "iata": "AID",
    "kdtw": "KAID",
    "lat": "40.10860061649999",
    "lng": "-85.6129989624"
  },
  {
    "name": "Aiken Regional Airport",
    "city": "Aiken",
    "country": "United States",
    "iata": "AIK",
    "kdtw": "KAIK",
    "lat": "33.649399",
    "lng": "-81.684998"
  },
  {
    "name": "Wainwright Airport",
    "city": "Wainwright",
    "country": "United States",
    "iata": "AIN",
    "kdtw": "PAWI",
    "lat": "70.6380004883",
    "lng": "-159.994995117"
  },
  {
    "name": "Adampur Airport",
    "city": "Adampur",
    "country": "India",
    "iata": "AIP",
    "kdtw": "VIAX",
    "lat": "31.4338",
    "lng": "75.758797"
  },
  {
    "name": "Aripuanã Airport",
    "city": "Aripuana",
    "country": "Brazil",
    "iata": "AIR",
    "kdtw": "SWRP",
    "lat": "-10.188278",
    "lng": "-59.457273"
  },
  {
    "name": "Arorae Island Airport",
    "city": "Arorae",
    "country": "Kiribati",
    "iata": "AIS",
    "kdtw": "NGTR",
    "lat": "-2.61611008644104",
    "lng": "176.80299377441406"
  },
  {
    "name": "Aitutaki Airport",
    "city": "Aitutaki",
    "country": "Cook Islands",
    "iata": "AIT",
    "kdtw": "NCAI",
    "lat": "-18.830900192260742",
    "lng": "-159.76400756835938"
  },
  {
    "name": "Enua Airport",
    "city": "Atiu Island",
    "country": "Cook Islands",
    "iata": "AIU",
    "kdtw": "NCAT",
    "lat": "-19.96780014038086",
    "lng": "-158.11900329589844"
  },
  {
    "name": "Lee C Fine Memorial Airport",
    "city": "Kaiser Lake Ozark",
    "country": "United States",
    "iata": "AIZ",
    "kdtw": "KAIZ",
    "lat": "38.0960006714",
    "lng": "-92.54949951170002"
  },
  {
    "name": "Ajaccio-Napoléon Bonaparte Airport",
    "city": "Ajaccio",
    "country": "France",
    "iata": "AJA",
    "kdtw": "LFKJ",
    "lat": "41.92359924316406",
    "lng": "8.8029203414917"
  },
  {
    "name": "Al-Jawf Domestic Airport",
    "city": "Al-Jawf",
    "country": "Saudi Arabia",
    "iata": "AJF",
    "kdtw": "OESK",
    "lat": "29.78510093688965",
    "lng": "40.099998474121094"
  },
  {
    "name": "Ağrı Airport",
    "city": "Agri",
    "country": "Turkey",
    "iata": "AJI",
    "kdtw": "LTCO",
    "lat": "39.654541015625",
    "lng": "43.025978088378906"
  },
  {
    "name": "Arak Airport",
    "city": "Arak",
    "country": "Iran",
    "iata": "AJK",
    "kdtw": "OIHR",
    "lat": "34.138099670410156",
    "lng": "49.8473014831543"
  },
  {
    "name": "Lengpui Airport",
    "city": "Aizwal",
    "country": "India",
    "iata": "AJL",
    "kdtw": "VELP",
    "lat": "23.840599060099997",
    "lng": "92.6196975708"
  },
  {
    "name": "Ouani Airport",
    "city": "Anjouan",
    "country": "Comoros",
    "iata": "AJN",
    "kdtw": "FMCV",
    "lat": "-12.131699562072754",
    "lng": "44.430301666259766"
  },
  {
    "name": "Arvidsjaur Airport",
    "city": "Arvidsjaur",
    "country": "Sweden",
    "iata": "AJR",
    "kdtw": "ESNX",
    "lat": "65.59030151367188",
    "lng": "19.28190040588379"
  },
  {
    "name": "Santa Maria Airport",
    "city": "Aracaju",
    "country": "Brazil",
    "iata": "AJU",
    "kdtw": "SBAR",
    "lat": "-10.984000206",
    "lng": "-37.0703010559"
  },
  {
    "name": "Mano Dayak International Airport",
    "city": "Agadez",
    "country": "Niger",
    "iata": "AJY",
    "kdtw": "DRZA",
    "lat": "16.965999603271484",
    "lng": "8.000109672546387"
  },
  {
    "name": "Ankang Wulipu Airport",
    "city": "Ankang",
    "country": "China",
    "iata": "AKA",
    "kdtw": "ZLAK",
    "lat": "32.708099",
    "lng": "108.931"
  },
  {
    "name": "Atka Airport",
    "city": "Atka",
    "country": "United States",
    "iata": "AKB",
    "kdtw": "PAAK",
    "lat": "52.22029877",
    "lng": "-174.2059937"
  },
  {
    "name": "Akron Fulton International Airport",
    "city": "Akron",
    "country": "United States",
    "iata": "AKC",
    "kdtw": "KAKR",
    "lat": "41.0374984741",
    "lng": "-81.4669036865"
  },
  {
    "name": "Akola Airport",
    "city": "Akola",
    "country": "India",
    "iata": "AKD",
    "kdtw": "VAAK",
    "lat": "20.698999",
    "lng": "77.058601"
  },
  {
    "name": "Kufra Airport",
    "city": "Kufra",
    "country": "Libya",
    "iata": "AKF",
    "kdtw": "HLKF",
    "lat": "24.178699493408203",
    "lng": "23.31399917602539"
  },
  {
    "name": "Prince Sultan Air Base",
    "city": "Al Kharj",
    "country": "Saudi Arabia",
    "iata": "AKH",
    "kdtw": "OEPS",
    "lat": "24.062700271606445",
    "lng": "47.580501556396484"
  },
  {
    "name": "Akiak Airport",
    "city": "Akiak",
    "country": "United States",
    "iata": "AKI",
    "kdtw": "PFAK",
    "lat": "60.9029006958",
    "lng": "-161.231002808"
  },
  {
    "name": "Asahikawa Airport",
    "city": "Asahikawa",
    "country": "Japan",
    "iata": "AKJ",
    "kdtw": "RJEC",
    "lat": "43.670799255371094",
    "lng": "142.44700622558594"
  },
  {
    "name": "Akhiok Airport",
    "city": "Akhiok",
    "country": "United States",
    "iata": "AKK",
    "kdtw": "PAKH",
    "lat": "56.9387016296",
    "lng": "-154.182998657"
  },
  {
    "name": "Auckland International Airport",
    "city": "Auckland",
    "country": "New Zealand",
    "iata": "AKL",
    "kdtw": "NZAA",
    "lat": "-37.008098602299995",
    "lng": "174.792007446"
  },
  {
    "name": "King Salmon Airport",
    "city": "King Salmon",
    "country": "United States",
    "iata": "AKN",
    "kdtw": "PAKN",
    "lat": "58.67679977",
    "lng": "-156.6490021"
  },
  {
    "name": "Colorado Plains Regional Airport",
    "city": "Akron",
    "country": "United States",
    "iata": "AKO",
    "kdtw": "KAKO",
    "lat": "40.1755981445",
    "lng": "-103.222000122"
  },
  {
    "name": "Anaktuvuk Pass Airport",
    "city": "Anaktuvuk Pass",
    "country": "United States",
    "iata": "AKP",
    "kdtw": "PAKP",
    "lat": "68.13359833",
    "lng": "-151.7429962"
  },
  {
    "name": "Akure Airport",
    "city": "Akure",
    "country": "Nigeria",
    "iata": "AKR",
    "kdtw": "DNAK",
    "lat": "7.246739864349365",
    "lng": "5.3010101318359375"
  },
  {
    "name": "Gwaunaru'u Airport",
    "city": "Auki",
    "country": "Solomon Islands",
    "iata": "AKS",
    "kdtw": "AGGA",
    "lat": "-8.70257",
    "lng": "160.682007"
  },
  {
    "name": "RAF Akrotiri",
    "city": "Akrotiri",
    "country": "Cyprus",
    "iata": "AKT",
    "kdtw": "LCRA",
    "lat": "34.590401",
    "lng": "32.9879"
  },
  {
    "name": "Aksu Airport",
    "city": "Aksu",
    "country": "China",
    "iata": "AKU",
    "kdtw": "ZWAK",
    "lat": "41.262501",
    "lng": "80.291702"
  },
  {
    "name": "Akulivik Airport",
    "city": "Akulivik",
    "country": "Canada",
    "iata": "AKV",
    "kdtw": "CYKO",
    "lat": "60.818599700927734",
    "lng": "-78.14859771728516"
  },
  {
    "name": "Aghajari Airport",
    "city": "Aghajari",
    "country": "Iran",
    "iata": "AKW",
    "kdtw": "OIAG",
    "lat": "30.7444",
    "lng": "49.6772"
  },
  {
    "name": "Aktobe Airport",
    "city": "Aktyubinsk",
    "country": "Kazakhstan",
    "iata": "AKX",
    "kdtw": "UATT",
    "lat": "50.2458",
    "lng": "57.206699"
  },
  {
    "name": "Sittwe Airport",
    "city": "Sittwe",
    "country": "Burma",
    "iata": "AKY",
    "kdtw": "VYSW",
    "lat": "20.132699966430664",
    "lng": "92.87259674072266"
  },
  {
    "name": "Almaty Airport",
    "city": "Alma-ata",
    "country": "Kazakhstan",
    "iata": "ALA",
    "kdtw": "UAAA",
    "lat": "43.35210037231445",
    "lng": "77.04049682617188"
  },
  {
    "name": "Albany International Airport",
    "city": "Albany",
    "country": "United States",
    "iata": "ALB",
    "kdtw": "KALB",
    "lat": "42.74829864501953",
    "lng": "-73.80169677734375"
  },
  {
    "name": "Alicante International Airport",
    "city": "Alicante",
    "country": "Spain",
    "iata": "ALC",
    "kdtw": "LEAL",
    "lat": "38.28219985961914",
    "lng": "-0.5581560134887695"
  },
  {
    "name": "Alpine Casparis Municipal Airport",
    "city": "Alpine",
    "country": "United States",
    "iata": "ALE",
    "kdtw": "KE38",
    "lat": "30.384199142499998",
    "lng": "-103.683998108"
  },
  {
    "name": "Alta Airport",
    "city": "Alta",
    "country": "Norway",
    "iata": "ALF",
    "kdtw": "ENAT",
    "lat": "69.976097106934",
    "lng": "23.371700286865"
  },
  {
    "name": "Houari Boumediene Airport",
    "city": "Algier",
    "country": "Algeria",
    "iata": "ALG",
    "kdtw": "DAAG",
    "lat": "36.691001892089844",
    "lng": "3.215409994125366"
  },
  {
    "name": "Albany Airport",
    "city": "Albany",
    "country": "Australia",
    "iata": "ALH",
    "kdtw": "YABA",
    "lat": "-34.94329833984375",
    "lng": "117.80899810791016"
  },
  {
    "name": "Alice International Airport",
    "city": "Alice",
    "country": "United States",
    "iata": "ALI",
    "kdtw": "KALI",
    "lat": "27.740900039699998",
    "lng": "-98.02690124510002"
  },
  {
    "name": "Alexander Bay Airport",
    "city": "Alexander Bay",
    "country": "South Africa",
    "iata": "ALJ",
    "kdtw": "FAAB",
    "lat": "-28.575001",
    "lng": "16.5333"
  },
  {
    "name": "Villanova D'Albenga International Airport",
    "city": "Albenga",
    "country": "Italy",
    "iata": "ALL",
    "kdtw": "LIMG",
    "lat": "44.050598",
    "lng": "8.12743"
  },
  {
    "name": "Alamogordo White Sands Regional Airport",
    "city": "Alamogordo",
    "country": "United States",
    "iata": "ALM",
    "kdtw": "KALM",
    "lat": "32.8399009705",
    "lng": "-105.990997314"
  },
  {
    "name": "St Louis Regional Airport",
    "city": "Alton/St Louis",
    "country": "United States",
    "iata": "ALN",
    "kdtw": "KALN",
    "lat": "38.89030075069999",
    "lng": "-90.0459976196"
  },
  {
    "name": "Waterloo Regional Airport",
    "city": "Waterloo",
    "country": "United States",
    "iata": "ALO",
    "kdtw": "KALO",
    "lat": "42.557098388671875",
    "lng": "-92.40029907226562"
  },
  {
    "name": "Aleppo International Airport",
    "city": "Aleppo",
    "country": "Syria",
    "iata": "ALP",
    "kdtw": "OSAP",
    "lat": "36.18069839477539",
    "lng": "37.22439956665039"
  },
  {
    "name": "Alexandra Airport",
    "city": "Alexandra",
    "country": "New Zealand",
    "iata": "ALR",
    "kdtw": "NZLX",
    "lat": "-45.211700439453125",
    "lng": "169.3730010986328"
  },
  {
    "name": "San Luis Valley Regional Bergman Field",
    "city": "Alamosa",
    "country": "United States",
    "iata": "ALS",
    "kdtw": "KALS",
    "lat": "37.434898",
    "lng": "-105.866997"
  },
  {
    "name": "Alula Airport",
    "city": "Alula",
    "country": "Somalia",
    "iata": "ALU",
    "kdtw": "HCMA",
    "lat": "11.9582",
    "lng": "50.748"
  },
  {
    "name": "Walla Walla Regional Airport",
    "city": "Walla Walla",
    "country": "United States",
    "iata": "ALW",
    "kdtw": "KALW",
    "lat": "46.09489822",
    "lng": "-118.288002"
  },
  {
    "name": "Thomas C Russell Field",
    "city": "Alexander City",
    "country": "United States",
    "iata": "ALX",
    "kdtw": "KALX",
    "lat": "32.914699554399995",
    "lng": "-85.9629974365"
  },
  {
    "name": "El Nouzha Airport",
    "city": "Alexandria",
    "country": "Egypt",
    "iata": "ALY",
    "kdtw": "HEAX",
    "lat": "31.183900833129883",
    "lng": "29.94890022277832"
  },
  {
    "name": "Rick Husband Amarillo International Airport",
    "city": "Amarillo",
    "country": "United States",
    "iata": "AMA",
    "kdtw": "KAMA",
    "lat": "35.219398",
    "lng": "-101.706001"
  },
  {
    "name": "Ambilobe Airport",
    "city": "Ambilobe",
    "country": "Madagascar",
    "iata": "AMB",
    "kdtw": "FMNE",
    "lat": "-13.188400268554688",
    "lng": "48.987998962402344"
  },
  {
    "name": "Am Timan Airport",
    "city": "Am Timan",
    "country": "Chad",
    "iata": "AMC",
    "kdtw": "FTTN",
    "lat": "11.0340003967",
    "lng": "20.274000167799997"
  },
  {
    "name": "Sardar Vallabhbhai Patel International Airport",
    "city": "Ahmedabad",
    "country": "India",
    "iata": "AMD",
    "kdtw": "VAAH",
    "lat": "23.0771999359",
    "lng": "72.63469696039999"
  },
  {
    "name": "Arba Minch Airport",
    "city": "Arba Minch",
    "country": "Ethiopia",
    "iata": "AMH",
    "kdtw": "HAAM",
    "lat": "6.0393900871276855",
    "lng": "37.59049987792969"
  },
  {
    "name": "Selaparang Airport",
    "city": "Mataram",
    "country": "Indonesia",
    "iata": "AMI",
    "kdtw": "WADA",
    "lat": "-8.560709953309999",
    "lng": "116.095001221"
  },
  {
    "name": "Queen Alia International Airport",
    "city": "Amman",
    "country": "Jordan",
    "iata": "AMM",
    "kdtw": "OJAI",
    "lat": "31.7226009369",
    "lng": "35.9931983948"
  },
  {
    "name": "Gratiot Community Airport",
    "city": "Kamloops",
    "country": "Canada",
    "iata": "AMN",
    "kdtw": "KAMN",
    "lat": "43.322101593",
    "lng": "-84.68800354"
  },
  {
    "name": "Pattimura Airport, Ambon",
    "city": "Ambon",
    "country": "Indonesia",
    "iata": "AMQ",
    "kdtw": "WAPP",
    "lat": "-3.7102599144",
    "lng": "128.089004517"
  },
  {
    "name": "Amsterdam Airport Schiphol",
    "city": "Amsterdam",
    "country": "Netherlands",
    "iata": "AMS",
    "kdtw": "EHAM",
    "lat": "52.308601",
    "lng": "4.76389"
  },
  {
    "name": "Amata Airport",
    "city": "Amata",
    "country": "Australia",
    "iata": "AMT",
    "kdtw": "YAMT",
    "lat": "-26.108299255371094",
    "lng": "131.20700073242188"
  },
  {
    "name": "Amderma Airport",
    "city": "Amderma",
    "country": "Russia",
    "iata": "AMV",
    "kdtw": "ULDD",
    "lat": "69.76329803466797",
    "lng": "61.556400299072266"
  },
  {
    "name": "Ardmore Airport",
    "city": "Ardmore",
    "country": "New Zealand",
    "iata": "AMZ",
    "kdtw": "NZAR",
    "lat": "-37.029701232910156",
    "lng": "174.97300720214844"
  },
  {
    "name": "Anniston Regional Airport",
    "city": "Anniston",
    "country": "United States",
    "iata": "ANB",
    "kdtw": "KANB",
    "lat": "33.5882",
    "lng": "-85.8581"
  },
  {
    "name": "Ted Stevens Anchorage International Airport",
    "city": "Anchorage",
    "country": "United States",
    "iata": "ANC",
    "kdtw": "PANC",
    "lat": "61.174400329589844",
    "lng": "-149.99600219726562"
  },
  {
    "name": "Anderson Regional Airport",
    "city": "Andersen",
    "country": "United States",
    "iata": "AND",
    "kdtw": "KAND",
    "lat": "34.4945983887",
    "lng": "-82.70939636230001"
  },
  {
    "name": "Angers-Loire Airport",
    "city": "Angers/Marcé",
    "country": "France",
    "iata": "ANE",
    "kdtw": "LFJR",
    "lat": "47.560299",
    "lng": "-0.312222"
  },
  {
    "name": "Andrés Sabella Gálvez International Airport",
    "city": "Antofagasta",
    "country": "Chile",
    "iata": "ANF",
    "kdtw": "SCFA",
    "lat": "-23.444501",
    "lng": "-70.445099"
  },
  {
    "name": "Angoulême-Brie-Champniers Airport",
    "city": "Angouleme",
    "country": "France",
    "iata": "ANG",
    "kdtw": "LFBU",
    "lat": "45.72919845581055",
    "lng": "0.22145600616931915"
  },
  {
    "name": "Aniak Airport",
    "city": "Aniak",
    "country": "United States",
    "iata": "ANI",
    "kdtw": "PANI",
    "lat": "61.581600189208984",
    "lng": "-159.54299926757812"
  },
  {
    "name": "Etimesgut Air Base",
    "city": "Ankara",
    "country": "Turkey",
    "iata": "ANK",
    "kdtw": "LTAD",
    "lat": "39.949798584",
    "lng": "32.6885986328"
  },
  {
    "name": "Antsirabato Airport",
    "city": "Antalaha",
    "country": "Madagascar",
    "iata": "ANM",
    "kdtw": "FMNH",
    "lat": "-14.99940013885498",
    "lng": "50.3202018737793"
  },
  {
    "name": "Annette Island Airport",
    "city": "Annette Island",
    "country": "United States",
    "iata": "ANN",
    "kdtw": "PANT",
    "lat": "55.04240036010742",
    "lng": "-131.57200622558594"
  },
  {
    "name": "Lee Airport",
    "city": "Annapolis",
    "country": "United States",
    "iata": "ANP",
    "kdtw": "KANP",
    "lat": "38.942902",
    "lng": "-76.568398"
  },
  {
    "name": "Tri State Steuben County Airport",
    "city": "Angola",
    "country": "United States",
    "iata": "ANQ",
    "kdtw": "KANQ",
    "lat": "41.639702",
    "lng": "-85.083504"
  },
  {
    "name": "Antwerp International Airport (Deurne)",
    "city": "Antwerp",
    "country": "Belgium",
    "iata": "ANR",
    "kdtw": "EBAW",
    "lat": "51.1893997192",
    "lng": "4.46027994156"
  },
  {
    "name": "Andahuaylas Airport",
    "city": "Andahuaylas",
    "country": "Peru",
    "iata": "ANS",
    "kdtw": "SPHY",
    "lat": "-13.706399917602539",
    "lng": "-73.35040283203125"
  },
  {
    "name": "V.C. Bird International Airport",
    "city": "Antigua",
    "country": "Antigua and Barbuda",
    "iata": "ANU",
    "kdtw": "TAPA",
    "lat": "17.1367",
    "lng": "-61.792702"
  },
  {
    "name": "Anvik Airport",
    "city": "Anvik",
    "country": "United States",
    "iata": "ANV",
    "kdtw": "PANV",
    "lat": "62.646702",
    "lng": "-160.190994"
  },
  {
    "name": "Andøya Airport",
    "city": "Andoya",
    "country": "Norway",
    "iata": "ANX",
    "kdtw": "ENAN",
    "lat": "69.292503356934",
    "lng": "16.144199371338"
  },
  {
    "name": "Altenburg-Nobitz Airport",
    "city": "Altenburg",
    "country": "Germany",
    "iata": "AOC",
    "kdtw": "EDAC",
    "lat": "50.981945",
    "lng": "12.506389"
  },
  {
    "name": "Anadolu Airport",
    "city": "Eskissehir",
    "country": "Turkey",
    "iata": "AOE",
    "kdtw": "LTBY",
    "lat": "39.809898",
    "lng": "30.5194"
  },
  {
    "name": "Anshan Air Base",
    "city": "Anshan",
    "country": "China",
    "iata": "AOG",
    "kdtw": "ZYAS",
    "lat": "41.105301",
    "lng": "122.853996"
  },
  {
    "name": "Lima Allen County Airport",
    "city": "Lima",
    "country": "United States",
    "iata": "AOH",
    "kdtw": "KAOH",
    "lat": "40.706902",
    "lng": "-84.026703"
  },
  {
    "name": "Ancona Falconara Airport",
    "city": "Ancona",
    "country": "Italy",
    "iata": "AOI",
    "kdtw": "LIPY",
    "lat": "43.616299",
    "lng": "13.3623"
  },
  {
    "name": "Aomori Airport",
    "city": "Aomori",
    "country": "Japan",
    "iata": "AOJ",
    "kdtw": "RJSA",
    "lat": "40.73469924926758",
    "lng": "140.6909942626953"
  },
  {
    "name": "Karpathos Airport",
    "city": "Karpathos",
    "country": "Greece",
    "iata": "AOK",
    "kdtw": "LGKP",
    "lat": "35.4213981628418",
    "lng": "27.145999908447266"
  },
  {
    "name": "Paso De Los Libres Airport",
    "city": "Paso De Los Libres",
    "country": "Argentina",
    "iata": "AOL",
    "kdtw": "SARL",
    "lat": "-29.6894",
    "lng": "-57.1521"
  },
  {
    "name": "Altoona Blair County Airport",
    "city": "Altoona",
    "country": "United States",
    "iata": "AOO",
    "kdtw": "KAOO",
    "lat": "40.29639816",
    "lng": "-78.31999969"
  },
  {
    "name": "Alferez FAP Alfredo Vladimir Sara Bauer Airport",
    "city": "Andoas",
    "country": "Peru",
    "iata": "AOP",
    "kdtw": "SPAS",
    "lat": "-2.79612994194",
    "lng": "-76.46659851070001"
  },
  {
    "name": "Sultan Abdul Halim Airport",
    "city": "Alor Setar",
    "country": "Malaysia",
    "iata": "AOR",
    "kdtw": "WMKA",
    "lat": "6.189670085906982",
    "lng": "100.39800262451172"
  },
  {
    "name": "Aosta Airport",
    "city": "Aosta",
    "country": "Italy",
    "iata": "AOT",
    "kdtw": "LIMW",
    "lat": "45.738499",
    "lng": "7.36872"
  },
  {
    "name": "Attopeu Airport",
    "city": "Attopeu",
    "country": "Laos",
    "iata": "AOU",
    "kdtw": "VLAP",
    "lat": "14.814715357",
    "lng": "106.821699142"
  },
  {
    "name": "Centennial Airport",
    "city": "Denver",
    "country": "United States",
    "iata": "APA",
    "kdtw": "KAPA",
    "lat": "39.57009888",
    "lng": "-104.848999"
  },
  {
    "name": "Napa County Airport",
    "city": "Napa",
    "country": "United States",
    "iata": "APC",
    "kdtw": "KAPC",
    "lat": "38.2132",
    "lng": "-122.280998"
  },
  {
    "name": "Naples Municipal Airport",
    "city": "Naples",
    "country": "United States",
    "iata": "APF",
    "kdtw": "KAPF",
    "lat": "26.1525993347",
    "lng": "-81.7752990723"
  },
  {
    "name": "Phillips Army Air Field",
    "city": "Aberdeen",
    "country": "United States",
    "iata": "APG",
    "kdtw": "KAPG",
    "lat": "39.466202",
    "lng": "-76.1688"
  },
  {
    "name": "Gomez Nino Apiay Air Base",
    "city": "Apiay",
    "country": "Colombia",
    "iata": "API",
    "kdtw": "SKAP",
    "lat": "4.07607",
    "lng": "-73.5627"
  },
  {
    "name": "Apataki Airport",
    "city": "Apataki",
    "country": "French Polynesia",
    "iata": "APK",
    "kdtw": "NTGD",
    "lat": "-15.5736",
    "lng": "-146.414993"
  },
  {
    "name": "Nampula Airport",
    "city": "Nampula",
    "country": "Mozambique",
    "iata": "APL",
    "kdtw": "FQNP",
    "lat": "-15.105600357055664",
    "lng": "39.28179931640625"
  },
  {
    "name": "Alpena County Regional Airport",
    "city": "Alpena",
    "country": "United States",
    "iata": "APN",
    "kdtw": "KAPN",
    "lat": "45.0780983",
    "lng": "-83.56030273"
  },
  {
    "name": "Antonio Roldan Betancourt Airport",
    "city": "Carepa",
    "country": "Colombia",
    "iata": "APO",
    "kdtw": "SKLC",
    "lat": "7.81196",
    "lng": "-76.7164"
  },
  {
    "name": "Arapiraca Airport",
    "city": "Arapiraca",
    "country": "Brazil",
    "iata": "APQ",
    "kdtw": "SNAL",
    "lat": "-9.775360107421875",
    "lng": "-36.62919998168945"
  },
  {
    "name": "Marion County Brown Field",
    "city": "Jasper",
    "country": "United States",
    "iata": "APT",
    "kdtw": "KAPT",
    "lat": "35.060699",
    "lng": "-85.585297"
  },
  {
    "name": "Faleolo International Airport",
    "city": "Faleolo",
    "country": "Samoa",
    "iata": "APW",
    "kdtw": "NSFA",
    "lat": "-13.829999923706055",
    "lng": "-172.00799560546875"
  },
  {
    "name": "Zapala Airport",
    "city": "ZAPALA",
    "country": "Argentina",
    "iata": "APZ",
    "kdtw": "SAHZ",
    "lat": "-38.975498",
    "lng": "-70.113602"
  },
  {
    "name": "Araraquara Airport",
    "city": "Araracuara",
    "country": "Brazil",
    "iata": "AQA",
    "kdtw": "SBAQ",
    "lat": "-21.812000274699997",
    "lng": "-48.1329994202"
  },
  {
    "name": "Santa Cruz del Quiche Airport",
    "city": "Santa Cruz des Quiche",
    "country": "Guatemala",
    "iata": "AQB",
    "kdtw": "MGQC",
    "lat": "15.012200355529785",
    "lng": "-91.15059661865234"
  },
  {
    "name": "Anqing Tianzhushan Airport",
    "city": "Anqing",
    "country": "China",
    "iata": "AQG",
    "kdtw": "ZSAQ",
    "lat": "30.582199",
    "lng": "117.050003"
  },
  {
    "name": "Al Qaisumah/Hafr Al Batin Airport",
    "city": "Hafr Al-batin",
    "country": "Saudi Arabia",
    "iata": "AQI",
    "kdtw": "OEPA",
    "lat": "28.335199",
    "lng": "46.125099"
  },
  {
    "name": "Aqaba King Hussein International Airport",
    "city": "Aqaba",
    "country": "Jordan",
    "iata": "AQJ",
    "kdtw": "OJAQ",
    "lat": "29.611600875854492",
    "lng": "35.01810073852539"
  },
  {
    "name": "Rodríguez Ballón International Airport",
    "city": "Arequipa",
    "country": "Peru",
    "iata": "AQP",
    "kdtw": "SPQU",
    "lat": "-16.3411006927",
    "lng": "-71.5830993652"
  },
  {
    "name": "Acadiana Regional Airport",
    "city": "Louisiana",
    "country": "United States",
    "iata": "ARA",
    "kdtw": "KARA",
    "lat": "30.0378",
    "lng": "-91.883904"
  },
  {
    "name": "Ann Arbor Municipal Airport",
    "city": "Ann Arbor",
    "country": "United States",
    "iata": "ARB",
    "kdtw": "KARB",
    "lat": "42.2229995728",
    "lng": "-83.74559783939999"
  },
  {
    "name": "Arctic Village Airport",
    "city": "Arctic Village",
    "country": "United States",
    "iata": "ARC",
    "kdtw": "PARC",
    "lat": "68.1147",
    "lng": "-145.578995"
  },
  {
    "name": "Mali Airport",
    "city": "Alor Island",
    "country": "Indonesia",
    "iata": "ARD",
    "kdtw": "WATM",
    "lat": "-8.132340431213379",
    "lng": "124.59700012207031"
  },
  {
    "name": "Antonio Nery Juarbe Pol Airport",
    "city": "Arecibo",
    "country": "Puerto Rico",
    "iata": "ARE",
    "kdtw": "TJAB",
    "lat": "18.4500007629",
    "lng": "-66.6753005981"
  },
  {
    "name": "Talagi Airport",
    "city": "Arkhangelsk",
    "country": "Russia",
    "iata": "ARH",
    "kdtw": "ULAA",
    "lat": "64.60030364990234",
    "lng": "40.71670150756836"
  },
  {
    "name": "Chacalluta Airport",
    "city": "Arica",
    "country": "Chile",
    "iata": "ARI",
    "kdtw": "SCAR",
    "lat": "-18.348499",
    "lng": "-70.338699"
  },
  {
    "name": "Arusha Airport",
    "city": "Arusha",
    "country": "Tanzania",
    "iata": "ARK",
    "kdtw": "HTAR",
    "lat": "-3.3677899837493896",
    "lng": "36.63330078125"
  },
  {
    "name": "Armidale Airport",
    "city": "Armidale",
    "country": "Australia",
    "iata": "ARM",
    "kdtw": "YARM",
    "lat": "-30.528099060099997",
    "lng": "151.617004395"
  },
  {
    "name": "Stockholm-Arlanda Airport",
    "city": "Stockholm",
    "country": "Sweden",
    "iata": "ARN",
    "kdtw": "ESSA",
    "lat": "59.651901245117",
    "lng": "17.918600082397"
  },
  {
    "name": "D. Casimiro Szlapelis Airport",
    "city": "Alto Rio Senguer",
    "country": "Argentina",
    "iata": "ARR",
    "kdtw": "SAVR",
    "lat": "-45.013599",
    "lng": "-70.812202"
  },
  {
    "name": "Watertown International Airport",
    "city": "Watertown",
    "country": "United States",
    "iata": "ART",
    "kdtw": "KART",
    "lat": "43.99190139770508",
    "lng": "-76.02169799804688"
  },
  {
    "name": "Araçatuba Airport",
    "city": "Aracatuba",
    "country": "Brazil",
    "iata": "ARU",
    "kdtw": "SBAU",
    "lat": "-21.1413002014",
    "lng": "-50.4247016907"
  },
  {
    "name": "Lakeland-Noble F. Lee Memorial field",
    "city": "Minocqua - Woodruff",
    "country": "United States",
    "iata": "ARV",
    "kdtw": "KARV",
    "lat": "45.92789841",
    "lng": "-89.73090363"
  },
  {
    "name": "Arad International Airport",
    "city": "Arad",
    "country": "Romania",
    "iata": "ARW",
    "kdtw": "LRAR",
    "lat": "46.17660140991211",
    "lng": "21.261999130249023"
  },
  {
    "name": "Ararat Airport",
    "city": "",
    "country": "Australia",
    "iata": "ARY",
    "kdtw": "YARA",
    "lat": "-37.30939865112305",
    "lng": "142.98899841308594"
  },
  {
    "name": "Assab International Airport",
    "city": "Assab",
    "country": "Eritrea",
    "iata": "ASA",
    "kdtw": "HHSB",
    "lat": "13.071800231933594",
    "lng": "42.64500045776367"
  },
  {
    "name": "Ashgabat International Airport",
    "city": "Ashkhabad",
    "country": "Turkmenistan",
    "iata": "ASB",
    "kdtw": "UTAA",
    "lat": "37.986801",
    "lng": "58.361"
  },
  {
    "name": "Andros Town Airport",
    "city": "Andros Town",
    "country": "Bahamas",
    "iata": "ASD",
    "kdtw": "MYAF",
    "lat": "24.697900772094727",
    "lng": "-77.79560089111328"
  },
  {
    "name": "Aspen-Pitkin Co/Sardy Field",
    "city": "Aspen",
    "country": "United States",
    "iata": "ASE",
    "kdtw": "KASE",
    "lat": "39.22320175",
    "lng": "-106.8690033"
  },
  {
    "name": "Astrakhan Airport",
    "city": "Astrakhan",
    "country": "Russia",
    "iata": "ASF",
    "kdtw": "URWA",
    "lat": "46.2832984924",
    "lng": "48.0063018799"
  },
  {
    "name": "Boire Field",
    "city": "Nashua",
    "country": "United States",
    "iata": "ASH",
    "kdtw": "KASH",
    "lat": "42.7817001343",
    "lng": "-71.51480102539999"
  },
  {
    "name": "RAF Ascension Island",
    "city": "Wide Awake",
    "country": "Saint Helena",
    "iata": "ASI",
    "kdtw": "FHAW",
    "lat": "-7.9696",
    "lng": "-14.3937"
  },
  {
    "name": "Amami Airport",
    "city": "Amami",
    "country": "Japan",
    "iata": "ASJ",
    "kdtw": "RJKA",
    "lat": "28.430599212646484",
    "lng": "129.71299743652344"
  },
  {
    "name": "Yamoussoukro Airport",
    "city": "Yamoussoukro",
    "country": "Cote d'Ivoire",
    "iata": "ASK",
    "kdtw": "DIYO",
    "lat": "6.9031701088",
    "lng": "-5.36558008194"
  },
  {
    "name": "Asmara International Airport",
    "city": "Asmara",
    "country": "Eritrea",
    "iata": "ASM",
    "kdtw": "HHAS",
    "lat": "15.291899681091309",
    "lng": "38.910701751708984"
  },
  {
    "name": "Talladega Municipal Airport",
    "city": "Talladega",
    "country": "United States",
    "iata": "ASN",
    "kdtw": "KASN",
    "lat": "33.569900512699995",
    "lng": "-86.05090332030001"
  },
  {
    "name": "Asosa Airport",
    "city": "Asosa",
    "country": "Ethiopia",
    "iata": "ASO",
    "kdtw": "HASO",
    "lat": "10.018500328063965",
    "lng": "34.586299896240234"
  },
  {
    "name": "Alice Springs Airport",
    "city": "Alice Springs",
    "country": "Australia",
    "iata": "ASP",
    "kdtw": "YBAS",
    "lat": "-23.806699752807617",
    "lng": "133.90199279785156"
  },
  {
    "name": "Kayseri Erkilet Airport",
    "city": "Kayseri",
    "country": "Turkey",
    "iata": "ASR",
    "kdtw": "LTAU",
    "lat": "38.770401001",
    "lng": "35.4953994751"
  },
  {
    "name": "Arathusa Safari Lodge Airport",
    "city": "Arathusa",
    "country": "South Africa",
    "iata": "ASS",
    "kdtw": "FACC",
    "lat": "-24.744165",
    "lng": "31.522499"
  },
  {
    "name": "Astoria Regional Airport",
    "city": "Astoria",
    "country": "United States",
    "iata": "AST",
    "kdtw": "KAST",
    "lat": "46.158000946",
    "lng": "-123.878997803"
  },
  {
    "name": "Silvio Pettirossi International Airport",
    "city": "Asuncion",
    "country": "Paraguay",
    "iata": "ASU",
    "kdtw": "SGAS",
    "lat": "-25.239999771118164",
    "lng": "-57.52000045776367"
  },
  {
    "name": "Amboseli Airport",
    "city": "Amboseli National Park",
    "country": "Kenya",
    "iata": "ASV",
    "kdtw": "HKAM",
    "lat": "-2.645050048828125",
    "lng": "37.25310134887695"
  },
  {
    "name": "Aswan International Airport",
    "city": "Aswan",
    "country": "Egypt",
    "iata": "ASW",
    "kdtw": "HESN",
    "lat": "23.9643993378",
    "lng": "32.8199996948"
  },
  {
    "name": "Comandante FAP German Arias Graziani Airport",
    "city": "Anta",
    "country": "Peru",
    "iata": "ATA",
    "kdtw": "SPHZ",
    "lat": "-9.347439765930176",
    "lng": "-77.59839630126953"
  },
  {
    "name": "Atbara Airport",
    "city": "Atbara",
    "country": "Sudan",
    "iata": "ATB",
    "kdtw": "HSAT",
    "lat": "17.710344314575195",
    "lng": "34.0570182800293"
  },
  {
    "name": "Arthur's Town Airport",
    "city": "Arthur's Town",
    "country": "Bahamas",
    "iata": "ATC",
    "kdtw": "MYCA",
    "lat": "24.6294",
    "lng": "-75.673797"
  },
  {
    "name": "Uru Harbour Airport",
    "city": "Atoifi",
    "country": "Solomon Islands",
    "iata": "ATD",
    "kdtw": "AGAT",
    "lat": "-8.87333",
    "lng": "161.011002"
  },
  {
    "name": "Chachoán Airport",
    "city": "Ambato",
    "country": "Ecuador",
    "iata": "ATF",
    "kdtw": "SEAM",
    "lat": "-1.2120699882507324",
    "lng": "-78.57460021972656"
  },
  {
    "name": "Minhas Air Base",
    "city": "Kamra",
    "country": "Pakistan",
    "iata": "ATG",
    "kdtw": "OPMS",
    "lat": "33.8690986633",
    "lng": "72.4009017944"
  },
  {
    "name": "Eleftherios Venizelos International Airport",
    "city": "Athens",
    "country": "Greece",
    "iata": "ATH",
    "kdtw": "LGAV",
    "lat": "37.9364013672",
    "lng": "23.9444999695"
  },
  {
    "name": "Artigas International Airport",
    "city": "Artigas ",
    "country": "Uruguay",
    "iata": "ATI",
    "kdtw": "SUAG",
    "lat": "-30.400699615478516",
    "lng": "-56.50790023803711"
  },
  {
    "name": "Antsirabe Airport",
    "city": "Antsirabe",
    "country": "Madagascar",
    "iata": "ATJ",
    "kdtw": "FMME",
    "lat": "-19.8392214824",
    "lng": "47.063713073699994"
  },
  {
    "name": "Atqasuk Edward Burnell Sr Memorial Airport",
    "city": "Atqasuk",
    "country": "United States",
    "iata": "ATK",
    "kdtw": "PATQ",
    "lat": "70.46730041503906",
    "lng": "-157.43600463867188"
  },
  {
    "name": "Hartsfield Jackson Atlanta International Airport",
    "city": "Atlanta",
    "country": "United States",
    "iata": "ATL",
    "kdtw": "KATL",
    "lat": "33.6367",
    "lng": "-84.428101"
  },
  {
    "name": "Altamira Airport",
    "city": "Altamira",
    "country": "Brazil",
    "iata": "ATM",
    "kdtw": "SBHT",
    "lat": "-3.2539100646973",
    "lng": "-52.254001617432"
  },
  {
    "name": "Ohio University Snyder Field",
    "city": "Athens",
    "country": "United States",
    "iata": "ATO",
    "kdtw": "KUNI",
    "lat": "39.2109985352",
    "lng": "-82.23139953610001"
  },
  {
    "name": "Sri Guru Ram Dass Jee International Airport",
    "city": "Amritsar",
    "country": "India",
    "iata": "ATQ",
    "kdtw": "VIAR",
    "lat": "31.7096004486",
    "lng": "74.7973022461"
  },
  {
    "name": "Atar International Airport",
    "city": "Atar",
    "country": "Mauritania",
    "iata": "ATR",
    "kdtw": "GQPA",
    "lat": "20.506799697875977",
    "lng": "-13.04319953918457"
  },
  {
    "name": "Appleton International Airport",
    "city": "Appleton",
    "country": "United States",
    "iata": "ATW",
    "kdtw": "KATW",
    "lat": "44.258098602299995",
    "lng": "-88.5190963745"
  },
  {
    "name": "Watertown Regional Airport",
    "city": "Watertown",
    "country": "United States",
    "iata": "ATY",
    "kdtw": "KATY",
    "lat": "44.91400146",
    "lng": "-97.15470123"
  },
  {
    "name": "Assiut International Airport",
    "city": "Asyut",
    "country": "Egypt",
    "iata": "ATZ",
    "kdtw": "HEAT",
    "lat": "27.0464992523",
    "lng": "31.0119991302"
  },
  {
    "name": "Queen Beatrix International Airport",
    "city": "Oranjestad",
    "country": "Aruba",
    "iata": "AUA",
    "kdtw": "TNCA",
    "lat": "12.5014",
    "lng": "-70.015198"
  },
  {
    "name": "Santiago Perez Airport",
    "city": "Arauca",
    "country": "Colombia",
    "iata": "AUC",
    "kdtw": "SKUC",
    "lat": "7.06888",
    "lng": "-70.7369"
  },
  {
    "name": "Auxerre-Branches Airport",
    "city": "Auxerre",
    "country": "France",
    "iata": "AUF",
    "kdtw": "LFLA",
    "lat": "47.85020065307617",
    "lng": "3.497109889984131"
  },
  {
    "name": "Augusta State Airport",
    "city": "Augusta",
    "country": "United States",
    "iata": "AUG",
    "kdtw": "KAUG",
    "lat": "44.320598602299995",
    "lng": "-69.7973022461"
  },
  {
    "name": "Abu Dhabi International Airport",
    "city": "Abu Dhabi",
    "country": "United Arab Emirates",
    "iata": "AUH",
    "kdtw": "OMAA",
    "lat": "24.433000564575195",
    "lng": "54.651100158691406"
  },
  {
    "name": "Alakanuk Airport",
    "city": "Alakanuk",
    "country": "United States",
    "iata": "AUK",
    "kdtw": "PAUK",
    "lat": "62.680042266799994",
    "lng": "-164.659927368"
  },
  {
    "name": "Auburn University Regional Airport",
    "city": "Auburn",
    "country": "United States",
    "iata": "AUO",
    "kdtw": "KAUO",
    "lat": "32.615101",
    "lng": "-85.433998"
  },
  {
    "name": "Hiva Oa-Atuona Airport",
    "city": "Hiva-oa",
    "country": "French Polynesia",
    "iata": "AUQ",
    "kdtw": "NTMN",
    "lat": "-9.76879024506",
    "lng": "-139.011001587"
  },
  {
    "name": "Aurillac Airport",
    "city": "Aurillac",
    "country": "France",
    "iata": "AUR",
    "kdtw": "LFLW",
    "lat": "44.89139938354492",
    "lng": "2.4219400882720947"
  },
  {
    "name": "Austin Bergstrom International Airport",
    "city": "Austin",
    "country": "United States",
    "iata": "AUS",
    "kdtw": "KAUS",
    "lat": "30.194499969482422",
    "lng": "-97.6698989868164"
  },
  {
    "name": "Aurukun Airport",
    "city": "Aurukun",
    "country": "Australia",
    "iata": "AUU",
    "kdtw": "YAUR",
    "lat": "-13.354067",
    "lng": "141.72065"
  },
  {
    "name": "Wausau Downtown Airport",
    "city": "Wausau",
    "country": "United States",
    "iata": "AUW",
    "kdtw": "KAUW",
    "lat": "44.9262008667",
    "lng": "-89.6266021729"
  },
  {
    "name": "Araguaína Airport",
    "city": "Araguaina",
    "country": "Brazil",
    "iata": "AUX",
    "kdtw": "SWGN",
    "lat": "-7.22787",
    "lng": "-48.240501"
  },
  {
    "name": "Aneityum Airport",
    "city": "Anelghowhat",
    "country": "Vanuatu",
    "iata": "AUY",
    "kdtw": "NVVA",
    "lat": "-20.2492008209",
    "lng": "169.770996094"
  },
  {
    "name": "Anshun Huangguoshu Airport",
    "city": "Anshun",
    "country": "China",
    "iata": "AVA",
    "kdtw": "ZUAS",
    "lat": "26.2605555556",
    "lng": "105.873333333"
  },
  {
    "name": "Aviano Air Base",
    "city": "Aviano",
    "country": "Italy",
    "iata": "AVB",
    "kdtw": "LIPA",
    "lat": "46.031898",
    "lng": "12.596503"
  },
  {
    "name": "Maximo Gomez Airport",
    "city": "Ciego De Avila",
    "country": "Cuba",
    "iata": "AVI",
    "kdtw": "MUCA",
    "lat": "22.027099609375",
    "lng": "-78.78959655761719"
  },
  {
    "name": "Arvaikheer Airport",
    "city": "Arvaikheer",
    "country": "Mongolia",
    "iata": "AVK",
    "kdtw": "ZMAH",
    "lat": "46.250301361083984",
    "lng": "102.802001953125"
  },
  {
    "name": "Asheville Regional Airport",
    "city": "Asheville",
    "country": "United States",
    "iata": "AVL",
    "kdtw": "KAVL",
    "lat": "35.43619918823242",
    "lng": "-82.54180145263672"
  },
  {
    "name": "Avignon-Caumont Airport",
    "city": "Avignon",
    "country": "France",
    "iata": "AVN",
    "kdtw": "LFMV",
    "lat": "43.90729904174805",
    "lng": "4.901830196380615"
  },
  {
    "name": "Avon Park Executive Airport",
    "city": "Avon Park",
    "country": "United States",
    "iata": "AVO",
    "kdtw": "KAVO",
    "lat": "27.59119987",
    "lng": "-81.52780151"
  },
  {
    "name": "Wilkes Barre Scranton International Airport",
    "city": "Scranton",
    "country": "United States",
    "iata": "AVP",
    "kdtw": "KAVP",
    "lat": "41.338500976599995",
    "lng": "-75.72339630130001"
  },
  {
    "name": "Alverca Air Base",
    "city": "Alverca",
    "country": "Portugal",
    "iata": "AVR",
    "kdtw": "LPAR",
    "lat": "38.883301",
    "lng": "-9.0301"
  },
  {
    "name": "Avalon Airport",
    "city": "Avalon",
    "country": "Australia",
    "iata": "AVV",
    "kdtw": "YMAV",
    "lat": "-38.039398",
    "lng": "144.468994"
  },
  {
    "name": "Marana Regional Airport",
    "city": "Tucson",
    "country": "United States",
    "iata": "AVW",
    "kdtw": "KAVQ",
    "lat": "32.4095993042",
    "lng": "-111.218002319"
  },
  {
    "name": "Catalina Airport",
    "city": "Catalina Island",
    "country": "United States",
    "iata": "AVX",
    "kdtw": "KAVX",
    "lat": "33.4049",
    "lng": "-118.416"
  },
  {
    "name": "Awassa Airport",
    "city": "Awasa",
    "country": "Ethiopia",
    "iata": "AWA",
    "kdtw": "HALA",
    "lat": "7.066999912261963",
    "lng": "38.5"
  },
  {
    "name": "Aniwa Airport",
    "city": "Aniwa",
    "country": "Vanuatu",
    "iata": "AWD",
    "kdtw": "NVVB",
    "lat": "-19.2346",
    "lng": "169.6009"
  },
  {
    "name": "Wake Island Airfield",
    "city": "Wake island",
    "country": "Wake Island",
    "iata": "AWK",
    "kdtw": "PWAK",
    "lat": "19.282100677490234",
    "lng": "166.63600158691406"
  },
  {
    "name": "Ahwaz Airport",
    "city": "Ahwaz",
    "country": "Iran",
    "iata": "AWZ",
    "kdtw": "OIAW",
    "lat": "31.337400436399996",
    "lng": "48.7620010376"
  },
  {
    "name": "Clayton J Lloyd International Airport",
    "city": "The Valley",
    "country": "Anguilla",
    "iata": "AXA",
    "kdtw": "TQPF",
    "lat": "18.2048",
    "lng": "-63.055099"
  },
  {
    "name": "Dimokritos Airport",
    "city": "Alexandroupolis",
    "country": "Greece",
    "iata": "AXD",
    "kdtw": "LGAL",
    "lat": "40.855899810791016",
    "lng": "25.956300735473633"
  },
  {
    "name": "Alxa Left Banner Bayanhot Airport",
    "city": "Alxa Left Banner",
    "country": "China",
    "iata": "AXF",
    "kdtw": "ZBAL",
    "lat": "38.74831",
    "lng": "105.58858"
  },
  {
    "name": "Amakusa Airport",
    "city": "Amakusa",
    "country": "Japan",
    "iata": "AXJ",
    "kdtw": "RJDA",
    "lat": "32.482498",
    "lng": "130.158997"
  },
  {
    "name": "Ataq Airport",
    "city": "Ataq",
    "country": "Yemen",
    "iata": "AXK",
    "kdtw": "OYAT",
    "lat": "14.551300048828125",
    "lng": "46.82619857788086"
  },
  {
    "name": "El Eden Airport",
    "city": "Armenia",
    "country": "Colombia",
    "iata": "AXM",
    "kdtw": "SKAR",
    "lat": "4.45278",
    "lng": "-75.7664"
  },
  {
    "name": "Chandler Field",
    "city": "Alexandria",
    "country": "United States",
    "iata": "AXN",
    "kdtw": "KAXN",
    "lat": "45.8662986755",
    "lng": "-95.39469909670001"
  },
  {
    "name": "Spring Point Airport",
    "city": "Spring Point",
    "country": "Bahamas",
    "iata": "AXP",
    "kdtw": "MYAP",
    "lat": "22.441799163800003",
    "lng": "-73.97090148930002"
  },
  {
    "name": "Arutua Airport",
    "city": "Arutua",
    "country": "French Polynesia",
    "iata": "AXR",
    "kdtw": "NTGU",
    "lat": "-15.248299598693848",
    "lng": "-146.61700439453125"
  },
  {
    "name": "Akita Airport",
    "city": "Akita",
    "country": "Japan",
    "iata": "AXT",
    "kdtw": "RJSK",
    "lat": "39.6156005859375",
    "lng": "140.218994140625"
  },
  {
    "name": "Axum Airport",
    "city": "Axum",
    "country": "Ethiopia",
    "iata": "AXU",
    "kdtw": "HAAX",
    "lat": "14.14680004119873",
    "lng": "38.77280044555664"
  },
  {
    "name": "Arkalyk North Airport",
    "city": "Arkalyk",
    "country": "Kazakhstan",
    "iata": "AYK",
    "kdtw": "UAUR",
    "lat": "50.318599700927734",
    "lng": "66.95279693603516"
  },
  {
    "name": "Juan De Ayolas Airport",
    "city": "Ayolas",
    "country": "Paraguay",
    "iata": "AYO",
    "kdtw": "SGAY",
    "lat": "-27.370554",
    "lng": "-56.854064"
  },
  {
    "name": "Coronel FAP Alfredo Mendivil Duarte Airport",
    "city": "Ayacucho",
    "country": "Peru",
    "iata": "AYP",
    "kdtw": "SPHO",
    "lat": "-13.154800415039062",
    "lng": "-74.20439910888672"
  },
  {
    "name": "Ayers Rock Connellan Airport",
    "city": "Uluru",
    "country": "Australia",
    "iata": "AYQ",
    "kdtw": "YAYE",
    "lat": "-25.1861",
    "lng": "130.975998"
  },
  {
    "name": "Waycross Ware County Airport",
    "city": "Waycross",
    "country": "United States",
    "iata": "AYS",
    "kdtw": "KAYS",
    "lat": "31.2490997314",
    "lng": "-82.39550018310001"
  },
  {
    "name": "Antalya International Airport",
    "city": "Antalya",
    "country": "Turkey",
    "iata": "AYT",
    "kdtw": "LTAI",
    "lat": "36.898701",
    "lng": "30.800501"
  },
  {
    "name": "Ayawasi Airport",
    "city": "Ayawasi",
    "country": "Indonesia",
    "iata": "AYW",
    "kdtw": "WASA",
    "lat": "-1.1593",
    "lng": "132.4633"
  },
  {
    "name": "Phoenix-Mesa-Gateway Airport",
    "city": "Mesa",
    "country": "United States",
    "iata": "AZA",
    "kdtw": "KIWA",
    "lat": "33.30780029",
    "lng": "-111.6549988"
  },
  {
    "name": "Shahid Sadooghi Airport",
    "city": "Yazd",
    "country": "Iran",
    "iata": "AZD",
    "kdtw": "OIYY",
    "lat": "31.9048995972",
    "lng": "54.2765007019"
  },
  {
    "name": "Bateen Airport",
    "city": "Abu Dhabi",
    "country": "United Arab Emirates",
    "iata": "AZI",
    "kdtw": "OMAD",
    "lat": "24.428300857543945",
    "lng": "54.458099365234375"
  },
  {
    "name": "Andizhan Airport",
    "city": "Andizhan",
    "country": "Uzbekistan",
    "iata": "AZN",
    "kdtw": "UTKA",
    "lat": "40.7276992798",
    "lng": "72.2939987183"
  },
  {
    "name": "Kalamazoo Battle Creek International Airport",
    "city": "Kalamazoo",
    "country": "United States",
    "iata": "AZO",
    "kdtw": "KAZO",
    "lat": "42.234901428222656",
    "lng": "-85.5521011352539"
  },
  {
    "name": "Touat Cheikh Sidi Mohamed Belkebir Airport",
    "city": "Adrar",
    "country": "Algeria",
    "iata": "AZR",
    "kdtw": "DAUA",
    "lat": "27.837600708007812",
    "lng": "-0.18641400337219238"
  },
  {
    "name": "Samaná El Catey International Airport",
    "city": "Samana",
    "country": "Dominican Republic",
    "iata": "AZS",
    "kdtw": "MDCY",
    "lat": "19.2670001984",
    "lng": "-69.7419967651"
  },
  {
    "name": "Beale Air Force Base",
    "city": "Marysville",
    "country": "United States",
    "iata": "BAB",
    "kdtw": "KBAB",
    "lat": "39.136100769",
    "lng": "-121.43699646"
  },
  {
    "name": "Barksdale Air Force Base",
    "city": "Shreveport",
    "country": "United States",
    "iata": "BAD",
    "kdtw": "KBAD",
    "lat": "32.5018005371",
    "lng": "-93.6626968384"
  },
  {
    "name": "Westfield-Barnes Regional Airport",
    "city": "Westfield",
    "country": "United States",
    "iata": "BAF",
    "kdtw": "KBAF",
    "lat": "42.157799",
    "lng": "-72.715599"
  },
  {
    "name": "Loakan Airport",
    "city": "Baguio",
    "country": "Philippines",
    "iata": "BAG",
    "kdtw": "RPUB",
    "lat": "16.375099182128906",
    "lng": "120.62000274658203"
  },
  {
    "name": "Bahrain International Airport",
    "city": "Bahrain",
    "country": "Bahrain",
    "iata": "BAH",
    "kdtw": "OBBI",
    "lat": "26.27079963684082",
    "lng": "50.63359832763672"
  },
  {
    "name": "Buenos Aires Airport",
    "city": "Buenos Aires",
    "country": "Costa Rica",
    "iata": "BAI",
    "kdtw": "MRBA",
    "lat": "9.163949",
    "lng": "-83.330171"
  },
  {
    "name": "Batman Airport",
    "city": "Batman",
    "country": "Turkey",
    "iata": "BAL",
    "kdtw": "LTCJ",
    "lat": "37.929000854499996",
    "lng": "41.1166000366"
  },
  {
    "name": "Ernesto Cortissoz International Airport",
    "city": "Barranquilla",
    "country": "Colombia",
    "iata": "BAQ",
    "kdtw": "SKBQ",
    "lat": "10.8896",
    "lng": "-74.7808"
  },
  {
    "name": "Qionghai Bo'ao Airport",
    "city": "Qionghai",
    "country": "China",
    "iata": "BAR",
    "kdtw": "ZJQH",
    "lat": "19.13824",
    "lng": "110.454775"
  },
  {
    "name": "Ballalae Airport",
    "city": "Ballalae",
    "country": "Solomon Islands",
    "iata": "BAS",
    "kdtw": "AGGE",
    "lat": "-6.990745",
    "lng": "155.886656"
  },
  {
    "name": "Chafei Amsei Airport",
    "city": "Barretos",
    "country": "Brazil",
    "iata": "BAT",
    "kdtw": "SBBT",
    "lat": "-20.584499359131",
    "lng": "-48.594100952148"
  },
  {
    "name": "Bauru Airport",
    "city": "Bauru",
    "country": "Brazil",
    "iata": "BAU",
    "kdtw": "SBBU",
    "lat": "-22.3449993134",
    "lng": "-49.0537986755"
  },
  {
    "name": "Baotou Airport",
    "city": "Baotou",
    "country": "China",
    "iata": "BAV",
    "kdtw": "ZBOW",
    "lat": "40.560001373291016",
    "lng": "109.99700164794922"
  },
  {
    "name": "Barnaul Airport",
    "city": "Barnaul",
    "country": "Russia",
    "iata": "BAX",
    "kdtw": "UNBB",
    "lat": "53.363800048828125",
    "lng": "83.53849792480469"
  },
  {
    "name": "Tautii Magheraus Airport",
    "city": "Baia Mare",
    "country": "Romania",
    "iata": "BAY",
    "kdtw": "LRBM",
    "lat": "47.65840148925781",
    "lng": "23.469999313354492"
  },
  {
    "name": "Barcelos Airport",
    "city": "Barcelos",
    "country": "Brazil",
    "iata": "BAZ",
    "kdtw": "SWBC",
    "lat": "-0.981292",
    "lng": "-62.919601"
  },
  {
    "name": "Balmaceda Airport",
    "city": "Balmaceda",
    "country": "Chile",
    "iata": "BBA",
    "kdtw": "SCBA",
    "lat": "-45.916099548339844",
    "lng": "-71.68949890136719"
  },
  {
    "name": "Bay City Municipal Airport",
    "city": "Bay City",
    "country": "United States",
    "iata": "BBC",
    "kdtw": "KBYY",
    "lat": "28.9733009338",
    "lng": "-95.8635025024"
  },
  {
    "name": "Curtis Field",
    "city": "Brady",
    "country": "United States",
    "iata": "BBD",
    "kdtw": "KBBD",
    "lat": "31.1793003082",
    "lng": "-99.3238983154"
  },
  {
    "name": "Butaritari Atoll Airport",
    "city": "Butaritari",
    "country": "Kiribati",
    "iata": "BBG",
    "kdtw": "NGTU",
    "lat": "3.08583",
    "lng": "172.811005"
  },
  {
    "name": "Barth Airport",
    "city": "Barth",
    "country": "Germany",
    "iata": "BBH",
    "kdtw": "EDBH",
    "lat": "54.338253",
    "lng": "12.710515"
  },
  {
    "name": "Biju Patnaik Airport",
    "city": "Bhubaneswar",
    "country": "India",
    "iata": "BBI",
    "kdtw": "VEBS",
    "lat": "20.244400024399997",
    "lng": "85.8178024292"
  },
  {
    "name": "Bitburg Airport",
    "city": "Birburg",
    "country": "Germany",
    "iata": "BBJ",
    "kdtw": "EDRB",
    "lat": "49.945278",
    "lng": "6.565"
  },
  {
    "name": "Kasane Airport",
    "city": "Kasane",
    "country": "Botswana",
    "iata": "BBK",
    "kdtw": "FBKE",
    "lat": "-17.83289909362793",
    "lng": "25.162399291992188"
  },
  {
    "name": "Ballera Airport",
    "city": "Ballera",
    "country": "Australia",
    "iata": "BBL",
    "kdtw": "YLLE",
    "lat": "-27.405633",
    "lng": "141.809458"
  },
  {
    "name": "Battambang Airport",
    "city": "Battambang",
    "country": "Cambodia",
    "iata": "BBM",
    "kdtw": "VDBG",
    "lat": "13.095600128173828",
    "lng": "103.2239990234375"
  },
  {
    "name": "Bario Airport",
    "city": "Bario",
    "country": "Malaysia",
    "iata": "BBN",
    "kdtw": "WBGZ",
    "lat": "3.7338900566101074",
    "lng": "115.47899627685547"
  },
  {
    "name": "Berbera Airport",
    "city": "Berbera",
    "country": "Somalia",
    "iata": "BBO",
    "kdtw": "HCMI",
    "lat": "10.389200210571289",
    "lng": "44.94110107421875"
  },
  {
    "name": "Bembridge Airport",
    "city": "Bembridge",
    "country": "United Kingdom",
    "iata": "BBP",
    "kdtw": "EGHJ",
    "lat": "50.6781005859",
    "lng": "-1.10943996906"
  },
  {
    "name": "Codrington Airport",
    "city": "Codrington",
    "country": "Antigua and Barbuda",
    "iata": "BBQ",
    "kdtw": "TAPH",
    "lat": "17.635799",
    "lng": "-61.828602"
  },
  {
    "name": "Baillif Airport",
    "city": "Basse Terre",
    "country": "Guadeloupe",
    "iata": "BBR",
    "kdtw": "TFFB",
    "lat": "16.0132999420166",
    "lng": "-61.7421989440918"
  },
  {
    "name": "Blackbushe Airport",
    "city": "Blackbushe",
    "country": "United Kingdom",
    "iata": "BBS",
    "kdtw": "EGLK",
    "lat": "51.32389831542969",
    "lng": "-0.8475000262260437"
  },
  {
    "name": "Berbérati Airport",
    "city": "Berberati",
    "country": "Central African Republic",
    "iata": "BBT",
    "kdtw": "FEFT",
    "lat": "4.2215800285339355",
    "lng": "15.786399841308594"
  },
  {
    "name": "Băneasa International Airport",
    "city": "Bucharest",
    "country": "Romania",
    "iata": "BBU",
    "kdtw": "LRBS",
    "lat": "44.50320053100586",
    "lng": "26.102100372314453"
  },
  {
    "name": "Wings Field",
    "city": "Philadelphia",
    "country": "United States",
    "iata": "BBX",
    "kdtw": "KLOM",
    "lat": "40.1375007629",
    "lng": "-75.2650985718"
  },
  {
    "name": "Gustavo Rizo Airport",
    "city": "Baracoa Playa",
    "country": "Cuba",
    "iata": "BCA",
    "kdtw": "MUBA",
    "lat": "20.365299224853516",
    "lng": "-74.5062026977539"
  },
  {
    "name": "Bacolod-Silay Airport",
    "city": "Bacolod",
    "country": "Philippines",
    "iata": "BCD",
    "kdtw": "RPVB",
    "lat": "10.7764",
    "lng": "123.014999"
  },
  {
    "name": "Bryce Canyon Airport",
    "city": "Bryce Canyon",
    "country": "United States",
    "iata": "BCE",
    "kdtw": "KBCE",
    "lat": "37.706401825",
    "lng": "-112.144996643"
  },
  {
    "name": "Cakung Airport",
    "city": "Baucau",
    "country": "East Timor",
    "iata": "BCH",
    "kdtw": "WPEC",
    "lat": "-8.489029884339999",
    "lng": "126.401000977"
  },
  {
    "name": "Barcaldine Airport",
    "city": "Barcaldine",
    "country": "Australia",
    "iata": "BCI",
    "kdtw": "YBAR",
    "lat": "-23.5652999878",
    "lng": "145.307006836"
  },
  {
    "name": "Barra del Colorado Airport",
    "city": "Pococi",
    "country": "Costa Rica",
    "iata": "BCL",
    "kdtw": "MRBC",
    "lat": "10.768699645996094",
    "lng": "-83.58560180664062"
  },
  {
    "name": "Bacău Airport",
    "city": "Bacau",
    "country": "Romania",
    "iata": "BCM",
    "kdtw": "LRBC",
    "lat": "46.52190017700195",
    "lng": "26.91029930114746"
  },
  {
    "name": "Barcelona International Airport",
    "city": "Barcelona",
    "country": "Spain",
    "iata": "BCN",
    "kdtw": "LEBL",
    "lat": "41.2971",
    "lng": "2.07846"
  },
  {
    "name": "Baco Airport",
    "city": "Baco",
    "country": "Ethiopia",
    "iata": "BCO",
    "kdtw": "HABC",
    "lat": "5.78287",
    "lng": "36.562"
  },
  {
    "name": "Boca Raton Airport",
    "city": "Boca Raton",
    "country": "United States",
    "iata": "BCT",
    "kdtw": "KBCT",
    "lat": "26.3784999847",
    "lng": "-80.1076965332"
  },
  {
    "name": "Sir Abubakar Tafawa Balewa International Airport",
    "city": "Bauchi",
    "country": "Nigeria",
    "iata": "BCU",
    "kdtw": "DNBC",
    "lat": "10.482833",
    "lng": "9.744"
  },
  {
    "name": "L.F. Wade International International Airport",
    "city": "Bermuda",
    "country": "Bermuda",
    "iata": "BDA",
    "kdtw": "TXKF",
    "lat": "32.36399841308594",
    "lng": "-64.67870330810547"
  },
  {
    "name": "Bundaberg Airport",
    "city": "Bundaberg",
    "country": "Australia",
    "iata": "BDB",
    "kdtw": "YBUD",
    "lat": "-24.903900146499996",
    "lng": "152.319000244"
  },
  {
    "name": "Badu Island Airport",
    "city": "Badu Island",
    "country": "Australia",
    "iata": "BDD",
    "kdtw": "YBAU",
    "lat": "-10.149999618499999",
    "lng": "142.1734"
  },
  {
    "name": "Baudette International Airport",
    "city": "Baudette",
    "country": "United States",
    "iata": "BDE",
    "kdtw": "KBDE",
    "lat": "48.7284011841",
    "lng": "-94.612197876"
  },
  {
    "name": "Bandar Lengeh Airport",
    "city": "Bandar Lengeh",
    "country": "Iran",
    "iata": "BDH",
    "kdtw": "OIBL",
    "lat": "26.531999588",
    "lng": "54.824798584"
  },
  {
    "name": "Bird Island Airport",
    "city": "Bird Island",
    "country": "Seychelles",
    "iata": "BDI",
    "kdtw": "FSSB",
    "lat": "-3.72472",
    "lng": "55.205299"
  },
  {
    "name": "Syamsudin Noor Airport",
    "city": "Banjarmasin",
    "country": "Indonesia",
    "iata": "BDJ",
    "kdtw": "WAOO",
    "lat": "-3.4423599243164062",
    "lng": "114.76300048828125"
  },
  {
    "name": "Bradley International Airport",
    "city": "Windsor Locks",
    "country": "United States",
    "iata": "BDL",
    "kdtw": "KBDL",
    "lat": "41.9388999939",
    "lng": "-72.68319702149999"
  },
  {
    "name": "Bandırma Airport",
    "city": "Bandirma",
    "country": "Turkey",
    "iata": "BDM",
    "kdtw": "LTBG",
    "lat": "40.31800079345703",
    "lng": "27.977699279785156"
  },
  {
    "name": "Talhar Airport",
    "city": "Talhar",
    "country": "Pakistan",
    "iata": "BDN",
    "kdtw": "OPTH",
    "lat": "24.84149932861328",
    "lng": "68.8384017944336"
  },
  {
    "name": "Husein Sastranegara International Airport",
    "city": "Bandung",
    "country": "Indonesia",
    "iata": "BDO",
    "kdtw": "WICC",
    "lat": "-6.900629997253418",
    "lng": "107.57599639892578"
  },
  {
    "name": "Bhadrapur Airport",
    "city": "Chandragarhi",
    "country": "Nepal",
    "iata": "BDP",
    "kdtw": "VNCG",
    "lat": "26.5708007812",
    "lng": "88.07959747310001"
  },
  {
    "name": "Vadodara Airport",
    "city": "Baroda",
    "country": "India",
    "iata": "BDQ",
    "kdtw": "VABO",
    "lat": "22.336201",
    "lng": "73.226303"
  },
  {
    "name": "Igor I Sikorsky Memorial Airport",
    "city": "Stratford",
    "country": "United States",
    "iata": "BDR",
    "kdtw": "KBDR",
    "lat": "41.16350173950195",
    "lng": "-73.1261978149414"
  },
  {
    "name": "Brindisi – Salento Airport",
    "city": "Brindisi",
    "country": "Italy",
    "iata": "BDS",
    "kdtw": "LIBR",
    "lat": "40.6576",
    "lng": "17.947001"
  },
  {
    "name": "Gbadolite Airport",
    "city": "Gbadolite",
    "country": "Congo (Kinshasa)",
    "iata": "BDT",
    "kdtw": "FZFD",
    "lat": "4.253210067749023",
    "lng": "20.975299835205078"
  },
  {
    "name": "Bardufoss Airport",
    "city": "Bardufoss",
    "country": "Norway",
    "iata": "BDU",
    "kdtw": "ENDU",
    "lat": "69.055801391602",
    "lng": "18.540399551392"
  },
  {
    "name": "Benbecula Airport",
    "city": "Benbecula",
    "country": "United Kingdom",
    "iata": "BEB",
    "kdtw": "EGPL",
    "lat": "57.48109817504883",
    "lng": "-7.3627800941467285"
  },
  {
    "name": "Beech Factory Airport",
    "city": "Wichita",
    "country": "United States",
    "iata": "BEC",
    "kdtw": "KBEC",
    "lat": "37.694499969499994",
    "lng": "-97.21499633790002"
  },
  {
    "name": "Laurence G Hanscom Field",
    "city": "Bedford",
    "country": "United States",
    "iata": "BED",
    "kdtw": "KBED",
    "lat": "42.47000122",
    "lng": "-71.28900146"
  },
  {
    "name": "Bluefields Airport",
    "city": "Bluefields",
    "country": "Nicaragua",
    "iata": "BEF",
    "kdtw": "MNBL",
    "lat": "11.991000175476074",
    "lng": "-83.77410125732422"
  },
  {
    "name": "Belgrade Nikola Tesla Airport",
    "city": "Belgrade",
    "country": "Serbia",
    "iata": "BEG",
    "kdtw": "LYBE",
    "lat": "44.8184013367",
    "lng": "20.3090991974"
  },
  {
    "name": "Beica Airport",
    "city": "Beica",
    "country": "Ethiopia",
    "iata": "BEI",
    "kdtw": "HABE",
    "lat": "9.38638973236084",
    "lng": "34.52190017700195"
  },
  {
    "name": "Kalimarau Airport",
    "city": "Tanjung Redep-Borneo Island",
    "country": "Indonesia",
    "iata": "BEJ",
    "kdtw": "WALK",
    "lat": "2.1555",
    "lng": "117.431999"
  },
  {
    "name": "Bareilly Air Force Station",
    "city": "Bareilly",
    "country": "India",
    "iata": "BEK",
    "kdtw": "VIBY",
    "lat": "28.4221000671",
    "lng": "79.45079803470001"
  },
  {
    "name": "Val de Cans/Júlio Cezar Ribeiro International Airport",
    "city": "Belem",
    "country": "Brazil",
    "iata": "BEL",
    "kdtw": "SBBE",
    "lat": "-1.3792500495900002",
    "lng": "-48.4762992859"
  },
  {
    "name": "Beni Mellal Airport",
    "city": "Beni Mellal",
    "country": "Morocco",
    "iata": "BEM",
    "kdtw": "GMMD",
    "lat": "32.401895",
    "lng": "-6.315905"
  },
  {
    "name": "Benina International Airport",
    "city": "Benghazi",
    "country": "Libya",
    "iata": "BEN",
    "kdtw": "HLLB",
    "lat": "32.096801757799994",
    "lng": "20.2695007324"
  },
  {
    "name": "Lake Macquarie Airport",
    "city": "Lake Macquarie",
    "country": "Australia",
    "iata": "BEO",
    "kdtw": "YPEC",
    "lat": "-33.0667",
    "lng": "151.647995"
  },
  {
    "name": "Bellary Airport",
    "city": "Bellary",
    "country": "India",
    "iata": "BEP",
    "kdtw": "VOBI",
    "lat": "15.162799835205078",
    "lng": "76.88279724121094"
  },
  {
    "name": "RAF Honington",
    "city": "Honington",
    "country": "United Kingdom",
    "iata": "BEQ",
    "kdtw": "EGXH",
    "lat": "52.34260177612305",
    "lng": "0.7729390263557434"
  },
  {
    "name": "Brest Bretagne Airport",
    "city": "Brest",
    "country": "France",
    "iata": "BES",
    "kdtw": "LFRB",
    "lat": "48.447898864746094",
    "lng": "-4.418540000915527"
  },
  {
    "name": "Bethel Airport",
    "city": "Bethel",
    "country": "United States",
    "iata": "BET",
    "kdtw": "PABE",
    "lat": "60.77980042",
    "lng": "-161.8379974"
  },
  {
    "name": "Bedourie Airport",
    "city": "Bedourie",
    "country": "Australia",
    "iata": "BEU",
    "kdtw": "YBIE",
    "lat": "-24.346099853515625",
    "lng": "139.4600067138672"
  },
  {
    "name": "Beersheba (Teyman) Airport",
    "city": "Beer-sheba",
    "country": "Israel",
    "iata": "BEV",
    "kdtw": "LLBS",
    "lat": "31.287000656128",
    "lng": "34.722999572754"
  },
  {
    "name": "Beira Airport",
    "city": "Beira",
    "country": "Mozambique",
    "iata": "BEW",
    "kdtw": "FQBR",
    "lat": "-19.79640007019043",
    "lng": "34.90760040283203"
  },
  {
    "name": "RAF Benson",
    "city": "Benson",
    "country": "United Kingdom",
    "iata": "BEX",
    "kdtw": "EGUB",
    "lat": "51.616401672399995",
    "lng": "-1.09582996368"
  },
  {
    "name": "Beirut Rafic Hariri International Airport",
    "city": "Beirut",
    "country": "Lebanon",
    "iata": "BEY",
    "kdtw": "OLBA",
    "lat": "33.820899963378906",
    "lng": "35.488399505615234"
  },
  {
    "name": "Beru Airport",
    "city": "Beru Island",
    "country": "Kiribati",
    "iata": "BEZ",
    "kdtw": "NGBR",
    "lat": "-1.3547199964523315",
    "lng": "176.0070037841797"
  },
  {
    "name": "Bradford Regional Airport",
    "city": "Bradford",
    "country": "United States",
    "iata": "BFD",
    "kdtw": "KBFD",
    "lat": "41.8031005859375",
    "lng": "-78.64009857177734"
  },
  {
    "name": "Bielefeld Airport",
    "city": "Bielefeld",
    "country": "Germany",
    "iata": "BFE",
    "kdtw": "EDLI",
    "lat": "51.964722",
    "lng": "8.544444"
  },
  {
    "name": "Western Neb. Rgnl/William B. Heilig Airport",
    "city": "Scottsbluff",
    "country": "United States",
    "iata": "BFF",
    "kdtw": "KBFF",
    "lat": "41.87400055",
    "lng": "-103.5960007"
  },
  {
    "name": "Bacacheri Airport",
    "city": "Curitiba",
    "country": "Brazil",
    "iata": "BFH",
    "kdtw": "SBBI",
    "lat": "-25.4050998688",
    "lng": "-49.23199844359999"
  },
  {
    "name": "Boeing Field King County International Airport",
    "city": "Seattle",
    "country": "United States",
    "iata": "BFI",
    "kdtw": "KBFI",
    "lat": "47.529998779296875",
    "lng": "-122.302001953125"
  },
  {
    "name": "Bijie Feixiong Airport",
    "city": "Bijie",
    "country": "China",
    "iata": "BFJ",
    "kdtw": "ZUBJ",
    "lat": "27.267066",
    "lng": "105.472097"
  },
  {
    "name": "Buckley Air Force Base",
    "city": "Buckley",
    "country": "United States",
    "iata": "BFK",
    "kdtw": "KBKF",
    "lat": "39.701698303200004",
    "lng": "-104.751998901"
  },
  {
    "name": "Meadows Field",
    "city": "Bakersfield",
    "country": "United States",
    "iata": "BFL",
    "kdtw": "KBFL",
    "lat": "35.43360138",
    "lng": "-119.0569992"
  },
  {
    "name": "Mobile Downtown Airport",
    "city": "Mobile",
    "country": "United States",
    "iata": "BFM",
    "kdtw": "KBFM",
    "lat": "30.626800537100003",
    "lng": "-88.06809997559999"
  },
  {
    "name": "Bram Fischer International Airport",
    "city": "Bloemfontein",
    "country": "South Africa",
    "iata": "BFN",
    "kdtw": "FABL",
    "lat": "-29.092699050900002",
    "lng": "26.302400589"
  },
  {
    "name": "Buffalo Range Airport",
    "city": "Chiredzi",
    "country": "Zimbabwe",
    "iata": "BFO",
    "kdtw": "FVCZ",
    "lat": "-21.008101",
    "lng": "31.5786"
  },
  {
    "name": "Beaver County Airport",
    "city": "Beaver Falls",
    "country": "United States",
    "iata": "BFP",
    "kdtw": "KBVI",
    "lat": "40.7724990845",
    "lng": "-80.39140319820001"
  },
  {
    "name": "Belfast International Airport",
    "city": "Belfast",
    "country": "United Kingdom",
    "iata": "BFS",
    "kdtw": "EGAA",
    "lat": "54.6575012207",
    "lng": "-6.2158298492399995"
  },
  {
    "name": "Beaufort County Airport",
    "city": "Beaufort",
    "country": "United States",
    "iata": "BFT",
    "kdtw": "KARW",
    "lat": "32.4122009277",
    "lng": "-80.6343994141"
  },
  {
    "name": "Bengbu Airport",
    "city": "Bengbu",
    "country": "China",
    "iata": "BFU",
    "kdtw": "ZSBB",
    "lat": "32.8477333333",
    "lng": "117.320244444"
  },
  {
    "name": "Buri Ram Airport",
    "city": "Buri Ram",
    "country": "Thailand",
    "iata": "BFV",
    "kdtw": "VTUO",
    "lat": "15.229499816894531",
    "lng": "103.25299835205078"
  },
  {
    "name": "Sidi Bel Abbes Airport",
    "city": "Sidi Bel Abbes",
    "country": "Algeria",
    "iata": "BFW",
    "kdtw": "DAOS",
    "lat": "35.1717987061",
    "lng": "-0.593275010586"
  },
  {
    "name": "Bafoussam Airport",
    "city": "Bafoussam",
    "country": "Cameroon",
    "iata": "BFX",
    "kdtw": "FKKU",
    "lat": "5.536920070650001",
    "lng": "10.354599952700001"
  },
  {
    "name": "Palonegro Airport",
    "city": "Bucaramanga",
    "country": "Colombia",
    "iata": "BGA",
    "kdtw": "SKBG",
    "lat": "7.1265",
    "lng": "-73.1848"
  },
  {
    "name": "Bragança Airport",
    "city": "Braganca",
    "country": "Portugal",
    "iata": "BGC",
    "kdtw": "LPBG",
    "lat": "41.8578",
    "lng": "-6.70713"
  },
  {
    "name": "Hutchinson County Airport",
    "city": "Borger",
    "country": "United States",
    "iata": "BGD",
    "kdtw": "KBGD",
    "lat": "35.700901031499995",
    "lng": "-101.393997192"
  },
  {
    "name": "Decatur County Industrial Air Park",
    "city": "Bainbridge",
    "country": "United States",
    "iata": "BGE",
    "kdtw": "KBGE",
    "lat": "30.9715004",
    "lng": "-84.63739777"
  },
  {
    "name": "Bangui M'Poko International Airport",
    "city": "Bangui",
    "country": "Central African Republic",
    "iata": "BGF",
    "kdtw": "FEFF",
    "lat": "4.39847993850708",
    "lng": "18.518800735473633"
  },
  {
    "name": "Bingöl Çeltiksuyu Airport",
    "city": "Bingol",
    "country": "Turkey",
    "iata": "BGG",
    "kdtw": "LTCU",
    "lat": "38.8592605591",
    "lng": "40.5959625244"
  },
  {
    "name": "Sir Grantley Adams International Airport",
    "city": "Bridgetown",
    "country": "Barbados",
    "iata": "BGI",
    "kdtw": "TBPB",
    "lat": "13.0746002197",
    "lng": "-59.4925003052"
  },
  {
    "name": "Baglung Airport",
    "city": "Baglung",
    "country": "Nepal",
    "iata": "BGL",
    "kdtw": "VNBL",
    "lat": "28.212799072265625",
    "lng": "83.66629791259766"
  },
  {
    "name": "Greater Binghamton/Edwin A Link field",
    "city": "Binghamton",
    "country": "United States",
    "iata": "BGM",
    "kdtw": "KBGM",
    "lat": "42.20869827",
    "lng": "-75.97979736"
  },
  {
    "name": "Belaya Gora Airport",
    "city": "",
    "country": "Russia",
    "iata": "BGN",
    "kdtw": "UESG",
    "lat": "68.556602",
    "lng": "146.231506"
  },
  {
    "name": "Bergen Airport Flesland",
    "city": "Bergen",
    "country": "Norway",
    "iata": "BGO",
    "kdtw": "ENBR",
    "lat": "60.29339981",
    "lng": "5.218140125"
  },
  {
    "name": "Bangor International Airport",
    "city": "Bangor",
    "country": "United States",
    "iata": "BGR",
    "kdtw": "KBGR",
    "lat": "44.80739974975586",
    "lng": "-68.8281021118164"
  },
  {
    "name": "Baghdad International Airport",
    "city": "Baghdad",
    "country": "Iraq",
    "iata": "BGW",
    "kdtw": "ORBI",
    "lat": "33.262500762900004",
    "lng": "44.2346000671"
  },
  {
    "name": "Comandante Gustavo Kraemer Airport",
    "city": "Bage",
    "country": "Brazil",
    "iata": "BGX",
    "kdtw": "SBBG",
    "lat": "-31.39049911499",
    "lng": "-54.112201690674"
  },
  {
    "name": "Il Caravaggio International Airport",
    "city": "Bergamo",
    "country": "Italy",
    "iata": "BGY",
    "kdtw": "LIME",
    "lat": "45.673901",
    "lng": "9.70417"
  },
  {
    "name": "Braga Municipal Aerodrome",
    "city": "Braga",
    "country": "Portugal",
    "iata": "BGZ",
    "kdtw": "LPBR",
    "lat": "41.5871009827",
    "lng": "-8.445139884949999"
  },
  {
    "name": "Hancock County-Bar Harbor Airport",
    "city": "Bar Harbor",
    "country": "United States",
    "iata": "BHB",
    "kdtw": "KBHB",
    "lat": "44.45000076",
    "lng": "-68.3615036"
  },
  {
    "name": "George Best Belfast City Airport",
    "city": "Belfast",
    "country": "United Kingdom",
    "iata": "BHD",
    "kdtw": "EGAC",
    "lat": "54.618099212646484",
    "lng": "-5.872499942779541"
  },
  {
    "name": "Woodbourne Airport",
    "city": "Woodbourne",
    "country": "New Zealand",
    "iata": "BHE",
    "kdtw": "NZWB",
    "lat": "-41.5182991027832",
    "lng": "173.8699951171875"
  },
  {
    "name": "Brus Laguna Airport",
    "city": "Brus Laguna",
    "country": "Honduras",
    "iata": "BHG",
    "kdtw": "MHBL",
    "lat": "15.7631",
    "lng": "-84.543602"
  },
  {
    "name": "Bisha Airport",
    "city": "Bisha",
    "country": "Saudi Arabia",
    "iata": "BHH",
    "kdtw": "OEBH",
    "lat": "19.984399795532227",
    "lng": "42.62089920043945"
  },
  {
    "name": "Comandante Espora Airport",
    "city": "Bahia Blanca",
    "country": "Argentina",
    "iata": "BHI",
    "kdtw": "SAZB",
    "lat": "-38.725",
    "lng": "-62.1693"
  },
  {
    "name": "Bhuj Airport",
    "city": "Bhuj",
    "country": "India",
    "iata": "BHJ",
    "kdtw": "VABJ",
    "lat": "23.2877998352",
    "lng": "69.6701965332"
  },
  {
    "name": "Bukhara Airport",
    "city": "Bukhara",
    "country": "Uzbekistan",
    "iata": "BHK",
    "kdtw": "UTSB",
    "lat": "39.775001525878906",
    "lng": "64.4832992553711"
  },
  {
    "name": "Birmingham-Shuttlesworth International Airport",
    "city": "Birmingham",
    "country": "United States",
    "iata": "BHM",
    "kdtw": "KBHM",
    "lat": "33.56290054",
    "lng": "-86.75350189"
  },
  {
    "name": "Beihan Airport",
    "city": "Beihan",
    "country": "Yemen",
    "iata": "BHN",
    "kdtw": "OYBN",
    "lat": "14.781999588012695",
    "lng": "45.72010040283203"
  },
  {
    "name": "Raja Bhoj International Airport",
    "city": "Bhopal",
    "country": "India",
    "iata": "BHO",
    "kdtw": "VABP",
    "lat": "23.2875003815",
    "lng": "77.3374023438"
  },
  {
    "name": "Bhojpur Airport",
    "city": "Bhojpur",
    "country": "Nepal",
    "iata": "BHP",
    "kdtw": "VNBJ",
    "lat": "27.14739990234375",
    "lng": "87.05079650878906"
  },
  {
    "name": "Broken Hill Airport",
    "city": "Broken Hill",
    "country": "Australia",
    "iata": "BHQ",
    "kdtw": "YBHI",
    "lat": "-32.0013999939",
    "lng": "141.472000122"
  },
  {
    "name": "Bharatpur Airport",
    "city": "Bharatpur",
    "country": "Nepal",
    "iata": "BHR",
    "kdtw": "VNBP",
    "lat": "27.678101",
    "lng": "84.429398"
  },
  {
    "name": "Bathurst Airport",
    "city": "Bathurst",
    "country": "Australia",
    "iata": "BHS",
    "kdtw": "YBTH",
    "lat": "-33.4094009399",
    "lng": "149.651992798"
  },
  {
    "name": "Bhavnagar Airport",
    "city": "Bhaunagar",
    "country": "India",
    "iata": "BHU",
    "kdtw": "VABV",
    "lat": "21.752199173",
    "lng": "72.1852035522"
  },
  {
    "name": "Bahawalpur Airport",
    "city": "Bahawalpur",
    "country": "Pakistan",
    "iata": "BHV",
    "kdtw": "OPBW",
    "lat": "29.348100662231445",
    "lng": "71.71800231933594"
  },
  {
    "name": "Bhagatanwala Airport",
    "city": "Bhagtanwala",
    "country": "Pakistan",
    "iata": "BHW",
    "kdtw": "OPBG",
    "lat": "32.056098938",
    "lng": "72.94840240479999"
  },
  {
    "name": "Birmingham International Airport",
    "city": "Birmingham",
    "country": "United Kingdom",
    "iata": "BHX",
    "kdtw": "EGBB",
    "lat": "52.453899383499994",
    "lng": "-1.74802994728"
  },
  {
    "name": "Beihai Airport",
    "city": "Beihai",
    "country": "China",
    "iata": "BHY",
    "kdtw": "ZGBH",
    "lat": "21.5394",
    "lng": "109.293999"
  },
  {
    "name": "Bastia-Poretta Airport",
    "city": "Bastia",
    "country": "France",
    "iata": "BIA",
    "kdtw": "LFKB",
    "lat": "42.55270004272461",
    "lng": "9.48373031616211"
  },
  {
    "name": "Baidoa Airport",
    "city": "Baidoa",
    "country": "Somalia",
    "iata": "BIB",
    "kdtw": "HCMB",
    "lat": "3.102220058441162",
    "lng": "43.62860107421875"
  },
  {
    "name": "Block Island State Airport",
    "city": "Block Island",
    "country": "United States",
    "iata": "BID",
    "kdtw": "KBID",
    "lat": "41.1680984497",
    "lng": "-71.577796936"
  },
  {
    "name": "Biggs Army Air Field (Fort Bliss)",
    "city": "El Paso",
    "country": "United States",
    "iata": "BIF",
    "kdtw": "KBIF",
    "lat": "31.84950066",
    "lng": "-106.3799973"
  },
  {
    "name": "Allen Army Airfield",
    "city": "Delta Junction",
    "country": "United States",
    "iata": "BIG",
    "kdtw": "PABI",
    "lat": "63.9944992065",
    "lng": "-145.722000122"
  },
  {
    "name": "Eastern Sierra Regional Airport",
    "city": "Bishop",
    "country": "United States",
    "iata": "BIH",
    "kdtw": "KBIH",
    "lat": "37.3731002808",
    "lng": "-118.363998413"
  },
  {
    "name": "Frans Kaisiepo Airport",
    "city": "Biak",
    "country": "Indonesia",
    "iata": "BIK",
    "kdtw": "WABB",
    "lat": "-1.190019965171814",
    "lng": "136.10800170898438"
  },
  {
    "name": "Billings Logan International Airport",
    "city": "Billings",
    "country": "United States",
    "iata": "BIL",
    "kdtw": "KBIL",
    "lat": "45.807701110839844",
    "lng": "-108.54299926757812"
  },
  {
    "name": "South Bimini Airport",
    "city": "Alice Town",
    "country": "Bahamas",
    "iata": "BIM",
    "kdtw": "MYBS",
    "lat": "25.6998996735",
    "lng": "-79.2647018433"
  },
  {
    "name": "Bamiyan Airport",
    "city": "Bamyan",
    "country": "Afghanistan",
    "iata": "BIN",
    "kdtw": "OABN",
    "lat": "34.81700134277344",
    "lng": "67.81700134277344"
  },
  {
    "name": "Bilbao Airport",
    "city": "Bilbao",
    "country": "Spain",
    "iata": "BIO",
    "kdtw": "LEBB",
    "lat": "43.30110168457031",
    "lng": "-2.9106099605560303"
  },
  {
    "name": "Biarritz-Anglet-Bayonne Airport",
    "city": "Biarritz-bayonne",
    "country": "France",
    "iata": "BIQ",
    "kdtw": "LFBZ",
    "lat": "43.4683333",
    "lng": "-1.5311111"
  },
  {
    "name": "Biratnagar Airport",
    "city": "Biratnagar",
    "country": "Nepal",
    "iata": "BIR",
    "kdtw": "VNVT",
    "lat": "26.48150062561035",
    "lng": "87.26399993896484"
  },
  {
    "name": "Bismarck Municipal Airport",
    "city": "Bismarck",
    "country": "United States",
    "iata": "BIS",
    "kdtw": "KBIS",
    "lat": "46.772701263427734",
    "lng": "-100.74600219726562"
  },
  {
    "name": "Bildudalur Airport",
    "city": "Bildudalur",
    "country": "Iceland",
    "iata": "BIU",
    "kdtw": "BIBD",
    "lat": "65.64129638671875",
    "lng": "-23.546199798583984"
  },
  {
    "name": "Keesler Air Force Base",
    "city": "Biloxi",
    "country": "United States",
    "iata": "BIX",
    "kdtw": "KBIX",
    "lat": "30.4104003906",
    "lng": "-88.92440032959999"
  },
  {
    "name": "Bisho Airport",
    "city": "Bisho",
    "country": "South Africa",
    "iata": "BIY",
    "kdtw": "FABE",
    "lat": "-32.8970985413",
    "lng": "27.279100418099997"
  },
  {
    "name": "Soummam Airport",
    "city": "Bejaja",
    "country": "Algeria",
    "iata": "BJA",
    "kdtw": "DAAE",
    "lat": "36.7120018005",
    "lng": "5.0699200630200005"
  },
  {
    "name": "Bojnord Airport",
    "city": "Bojnourd",
    "country": "Iran",
    "iata": "BJB",
    "kdtw": "OIMN",
    "lat": "37.49300003051758",
    "lng": "57.30820083618164"
  },
  {
    "name": "Rocky Mountain Metropolitan Airport",
    "city": "Broomfield-CO",
    "country": "United States",
    "iata": "BJC",
    "kdtw": "KBJC",
    "lat": "39.90879822",
    "lng": "-105.1169968"
  },